[
    {
        "address": "701 North Pacific Avenue, #450",
        "chamber": 1,
        "city": "Mineola",
        "county": "Wood",
        "district": 5,
        "districtOfficeID": 1,
        "fax": "903-569-8889",
        "formattedAddress": "701 N Pacific St, Mineola, TX 75773",
        "latitude": 32.6689109802246,
        "legislatorID": 50173,
        "longitude": -95.4863739013672,
        "phone": "903-569-8880",
        "pinColorIndex": 1,
        "spanLat": 0.00629425048828125,
        "spanLon": 0.00629425048828125,
        "stateCode": "TX",
        "updated": "2015-01-20 02:15:43",
        "zipCode": "75773"
    },
    {
        "address": "1110 Houston Street",
        "chamber": 1,
        "city": "Laredo",
        "county": "Webb",
        "district": 42,
        "districtOfficeID": 2,
        "fax": "",
        "formattedAddress": "1110 Houston St, Laredo, TX 78040",
        "latitude": 27.5071029663086,
        "legislatorID": 5571,
        "longitude": -99.5072326660156,
        "phone": "956-753-7722",
        "pinColorIndex": 1,
        "spanLat": 0.00629425048828125,
        "spanLon": 0.00629425048828125,
        "stateCode": "TX",
        "updated": "2015-01-20 02:15:43",
        "zipCode": "78040"
    },
    {
        "address": "501 Main Street, #114",
        "chamber": 2,
        "city": "Eagle Pass",
        "county": "Maverick",
        "district": 19,
        "districtOfficeID": 3,
        "fax": "830-758-0402",
        "formattedAddress": "501 Main St, Eagle Pass, TX 78852",
        "latitude": 28.7084884643555,
        "legislatorID": 15218,
        "longitude": -100.50171661377,
        "phone": "830-758-0294",
        "pinColorIndex": 1,
        "spanLat": 0.00629425048828125,
        "spanLon": 0.00629425048828125,
        "stateCode": "TX",
        "updated": "2015-01-20 02:15:43",
        "zipCode": "78852"
    },
    {
        "address": "3319 Sidney Brooks, #510-2",
        "chamber": 1,
        "city": "Brooks City Base",
        "county": "Bexar",
        "district": 119,
        "districtOfficeID": 4,
        "fax": "",
        "formattedAddress": "Sidney Brooks, San Antonio, TX 78235",
        "latitude": 29.3459339141846,
        "legislatorID": 106951,
        "longitude": -98.4555816650391,
        "phone": "210-532-2758",
        "pinColorIndex": 1,
        "spanLat": 0.00629615783691406,
        "spanLon": 0.0063018798828125,
        "stateCode": "TX",
        "updated": "2015-01-20 02:15:43",
        "zipCode": "78235"
    },
    {
        "address": "1510 North Hampton Road, #340",
        "chamber": 1,
        "city": "DeSoto",
        "county": "Dallas",
        "district": 109,
        "districtOfficeID": 5,
        "fax": "",
        "formattedAddress": "1510 N Hampton Rd, DeSoto, TX 75115",
        "latitude": 32.6192512512207,
        "legislatorID": 5506,
        "longitude": -96.8563079833984,
        "phone": "942-224-6795",
        "pinColorIndex": 1,
        "spanLat": 0.00629425048828125,
        "spanLon": 0.00629425048828125,
        "stateCode": "TX",
        "updated": "2015-01-20 02:15:43",
        "zipCode": "75115"
    },
    {
        "address": "500 Chestnut, #810",
        "chamber": 2,
        "city": "Abilene",
        "county": "Taylor",
        "district": 24,
        "districtOfficeID": 10,
        "fax": "325-676-8060",
        "formattedAddress": "810 Chestnut St, Abilene, TX 79602",
        "latitude": 32.4403648376465,
        "legislatorID": 9952,
        "longitude": -99.7349014282227,
        "phone": "325-676-7404",
        "pinColorIndex": 1,
        "spanLat": 0.00629425048828125,
        "spanLon": 0.00629425048828125,
        "stateCode": "TX",
        "updated": "2015-01-20 02:15:43",
        "zipCode": "79602"
    },
    {
        "address": "100 North F.M. 3167, #212",
        "chamber": 1,
        "city": "Rio Grande City",
        "county": "Starr",
        "district": 31,
        "districtOfficeID": 12,
        "fax": "",
        "formattedAddress": "F-M 3167, Rio Grande City, TX 78582",
        "latitude": 26.5547351837158,
        "legislatorID": 49248,
        "longitude": -98.8756408691406,
        "phone": "956-716-4838",
        "pinColorIndex": 1,
        "spanLat": 0.0302333831787109,
        "spanLon": 0.00629425048828125,
        "stateCode": "TX",
        "updated": "2015-01-20 02:15:43",
        "zipCode": "78582"
    },
    {
        "address": "2440 Texas Parkway, #110",
        "chamber": 2,
        "city": "Missouri City",
        "county": "Fort Bend",
        "district": 13,
        "districtOfficeID": 13,
        "fax": "281-261-4726",
        "formattedAddress": "2440 Texas Pkwy, Missouri City, TX 77489",
        "latitude": 29.5918941497803,
        "legislatorID": 5438,
        "longitude": -95.5271911621094,
        "phone": "281-261-2360",
        "pinColorIndex": 1,
        "spanLat": 0.00629425048828125,
        "spanLon": 0.00629425048828125,
        "stateCode": "TX",
        "updated": "2015-01-20 02:15:43",
        "zipCode": "77489"
    },
    {
        "address": "400 South Zang Boulevard, #801",
        "chamber": 1,
        "city": "Dallas",
        "county": "Dallas",
        "district": 104,
        "districtOfficeID": 17,
        "fax": "214-942-8104",
        "formattedAddress": "400 Zang Blvd S, Dallas, TX 75208",
        "latitude": 32.7418441772461,
        "legislatorID": 5468,
        "longitude": -96.8237380981445,
        "phone": "214-942-7104",
        "pinColorIndex": 1,
        "spanLat": 0.00629425048828125,
        "spanLon": 0.00629425048828125,
        "stateCode": "TX",
        "updated": "2015-01-20 02:15:43",
        "zipCode": "75208"
    },
    {
        "address": "403 South WW White Road, #210",
        "chamber": 1,
        "city": "San Antonio",
        "county": "Bexar",
        "district": 120,
        "districtOfficeID": 18,
        "fax": "",
        "formattedAddress": "403 S Ww White Rd, San Antonio, TX 78219",
        "latitude": 29.4247589111328,
        "legislatorID": 15102,
        "longitude": -98.4065933227539,
        "phone": "210-225-2107",
        "pinColorIndex": 1,
        "spanLat": 0.00629425048828125,
        "spanLon": 0.00629425048828125,
        "stateCode": "TX",
        "updated": "2015-01-20 02:15:43",
        "zipCode": "78219"
    },
    {
        "address": "101 Highway 281 North, #203",
        "chamber": 2,
        "city": "Marble Falls",
        "county": "Burnet",
        "district": 24,
        "districtOfficeID": 19,
        "fax": "830-693-9603",
        "formattedAddress": "Hwy 281 Blanco, Marble Falls, TX 78654",
        "latitude": 30.4832820892334,
        "legislatorID": 9952,
        "longitude": -98.3146057128906,
        "phone": "830-693-9900",
        "pinColorIndex": 1,
        "spanLat": 0.00629615783691406,
        "spanLon": 0.00629425048828125,
        "stateCode": "TX",
        "updated": "2015-01-20 02:15:43",
        "zipCode": "78654"
    },
    {
        "address": "4401 North Interstate-Highway 35, #202",
        "chamber": 2,
        "city": "Denton",
        "county": "Denton",
        "district": 30,
        "districtOfficeID": 21,
        "fax": "940-898-0926",
        "formattedAddress": "S Interstate Highway 35 E, Denton, TX 76210",
        "latitude": 33.1864356994629,
        "legislatorID": 49388,
        "longitude": -97.1094741821289,
        "phone": "940-898-0331",
        "pinColorIndex": 1,
        "spanLat": 0.00629425048828125,
        "spanLon": 0.00629425048828125,
        "stateCode": "TX",
        "updated": "2015-01-20 02:15:43",
        "zipCode": "76207"
    },
    {
        "address": "8799 North Loop East, #305",
        "chamber": 1,
        "city": "Houston",
        "county": "Harris",
        "district": 142,
        "districtOfficeID": 22,
        "fax": "713-692-6791",
        "formattedAddress": "North Loop E, Houston, TX 77029",
        "latitude": 29.8013477325439,
        "legislatorID": 5498,
        "longitude": -95.2757339477539,
        "phone": "713-692-9192",
        "pinColorIndex": 1,
        "spanLat": 0.00629615783691406,
        "spanLon": 0.00629425048828125,
        "stateCode": "TX",
        "updated": "2015-01-20 02:15:43",
        "zipCode": "77029"
    },
    {
        "address": "Post Office Box 1397",
        "chamber": 1,
        "city": "Corsicana",
        "county": "Navarro",
        "district": 8,
        "districtOfficeID": 26,
        "fax": "",
        "formattedAddress": "Post Office Box 1397",
        "latitude": 32.0900001525879,
        "legislatorID": 50125,
        "longitude": -96.4599990844727,
        "phone": "903-872-9766",
        "pinColorIndex": 1,
        "spanLat": 0.00629425048828125,
        "spanLon": 0.00629425048828125,
        "stateCode": "TX",
        "updated": "2015-01-20 02:15:43",
        "zipCode": "75151"
    },
    {
        "address": "7474 South Kirkwood, #202",
        "chamber": 1,
        "city": "Houston",
        "county": "Harris",
        "district": 149,
        "districtOfficeID": 31,
        "fax": "",
        "formattedAddress": "7474 S Kirkwood Rd, Houston, TX 77072",
        "latitude": 29.6973438262939,
        "legislatorID": 49576,
        "longitude": -95.5881271362305,
        "phone": "281-988-0212",
        "pinColorIndex": 1,
        "spanLat": 0.00629425048828125,
        "spanLon": 0.00629425048828125,
        "stateCode": "TX",
        "updated": "2015-01-20 02:15:43",
        "zipCode": "77072"
    },
    {
        "address": "400 East Gravis Ave, #332",
        "chamber": 1,
        "city": "San Diego",
        "county": "Duval",
        "district": 31,
        "districtOfficeID": 32,
        "fax": "361-279-2129",
        "formattedAddress": "400 E Gravis Ave, San Diego, TX 78384",
        "latitude": 27.763313293457,
        "legislatorID": 49248,
        "longitude": -98.2356338500977,
        "phone": "361-279-7344",
        "pinColorIndex": 1,
        "spanLat": 0.00629615783691406,
        "spanLon": 0.0063018798828125,
        "stateCode": "TX",
        "updated": "2015-01-20 02:15:43",
        "zipCode": "78384"
    },
    {
        "address": "1235 South Main Street, #280",
        "chamber": 2,
        "city": "Grapevine",
        "county": "Tarrant",
        "district": 12,
        "districtOfficeID": 35,
        "fax": "",
        "formattedAddress": "1235 S Main St, Grapevine, TX 76051",
        "latitude": 32.9278335571289,
        "legislatorID": 5451,
        "longitude": -97.0783386230469,
        "phone": "817-424-3446",
        "pinColorIndex": 1,
        "spanLat": 0.00629425048828125,
        "spanLon": 0.00629425048828125,
        "stateCode": "TX",
        "updated": "2015-01-20 02:15:43",
        "zipCode": "76051"
    },
    {
        "address": "900 Austin Avenue, #804",
        "chamber": 1,
        "city": "Waco",
        "county": "McLennan",
        "district": 56,
        "districtOfficeID": 36,
        "fax": "254-754-1604",
        "formattedAddress": "900 Austin Ave, Waco, TX 76701",
        "latitude": 31.5532512664795,
        "legislatorID": 49739,
        "longitude": -97.1352920532227,
        "phone": "254-754-3892",
        "pinColorIndex": 1,
        "spanLat": 0.00629615783691406,
        "spanLon": 0.00629425048828125,
        "stateCode": "TX",
        "updated": "2015-01-20 02:15:43",
        "zipCode": "76701"
    },
    {
        "address": "2916 Illinois Avenue",
        "chamber": 1,
        "city": "Killeen",
        "county": "Bell",
        "district": 54,
        "districtOfficeID": 38,
        "fax": "",
        "formattedAddress": "2916 Illinois Ave, Killeen, TX 76543",
        "latitude": 31.0912704467773,
        "legislatorID": 57995,
        "longitude": -97.7096939086914,
        "phone": "254-690-1752",
        "pinColorIndex": 1,
        "spanLat": 0.00629615783691406,
        "spanLon": 0.00629425048828125,
        "stateCode": "TX",
        "updated": "2015-01-20 02:15:43",
        "zipCode": "76543"
    },
    {
        "address": "523 East Donegan, #102",
        "chamber": 1,
        "city": "Seguin",
        "county": "Guadalupe",
        "district": 44,
        "districtOfficeID": 42,
        "fax": "",
        "formattedAddress": "523 E Donegan St, Seguin, TX 78155",
        "latitude": 29.5679302215576,
        "legislatorID": 128461,
        "longitude": -97.9604263305664,
        "phone": "830-379-8732",
        "pinColorIndex": 1,
        "spanLat": 0.00629615783691406,
        "spanLon": 0.00629425048828125,
        "stateCode": "TX",
        "updated": "2015-01-20 02:15:43",
        "zipCode": "78155"
    },
    {
        "address": "2000 S. Market St., #101",
        "chamber": 2,
        "city": "Brenham",
        "county": "Washington",
        "district": 18,
        "districtOfficeID": 44,
        "fax": "",
        "formattedAddress": "2000 S. Market St., #101, Brenham, TX 77833",
        "latitude": 30.1510573,
        "legislatorID": 49608,
        "longitude": -96.391237,
        "phone": "979-251-7888",
        "pinColorIndex": 1,
        "spanLat": 0.00629425048828125,
        "spanLon": 0.00629425048828125,
        "stateCode": "TX",
        "updated": "2015-01-20 02:15:43",
        "zipCode": "77833"
    },
    {
        "address": "660 Southwest Military Drive, #L",
        "chamber": 1,
        "city": "San Antonio",
        "county": "Bexar",
        "district": 118,
        "districtOfficeID": 45,
        "fax": "",
        "formattedAddress": "660 SW Military Dr, San Antonio, TX 78221",
        "latitude": 29.3561115264893,
        "legislatorID": 59398,
        "longitude": -98.5013732910156,
        "phone": "210-923-0908",
        "pinColorIndex": 1,
        "spanLat": 0.00629615783691406,
        "spanLon": 0.00629425048828125,
        "stateCode": "TX",
        "updated": "2015-01-20 02:15:43",
        "zipCode": "78221"
    },
    {
        "address": "1100 N Congress Ave",
        "chamber": 2,
        "city": "Austin",
        "county": "Travis",
        "district": 14,
        "districtOfficeID": 46,
        "fax": "512-463-5949",
        "formattedAddress": "1100 N Congress Ave, Austin, TX 78701",
        "latitude": 30.2727451324463,
        "legislatorID": 57991,
        "longitude": -97.7411346435547,
        "phone": "512-463-0114",
        "pinColorIndex": 1,
        "spanLat": 0.00629425048828125,
        "spanLon": 0.00629425048828125,
        "stateCode": "TX",
        "updated": "2015-01-20 02:15:43",
        "zipCode": "78701"
    },
    {
        "address": "4501 Magnolia Cove, #201",
        "chamber": 1,
        "city": "Kingwood",
        "county": "Harris",
        "district": 127,
        "districtOfficeID": 47,
        "fax": "",
        "formattedAddress": "4501 Magnolia Cove, #201, Kingwood, TX, 77345",
        "latitude": 30.0322722,
        "legislatorID": 117477,
        "longitude": -95.1732516,
        "phone": "",
        "pinColorIndex": 1,
        "spanLat": 0.00629425048828125,
        "spanLon": 0.0063018798828125,
        "stateCode": "TX",
        "updated": "2015-01-20 02:15:43",
        "zipCode": "77345"
    },
    {
        "address": "21901 State Highway 249, #350",
        "chamber": 1,
        "city": "Houston",
        "county": "Harris",
        "district": 130,
        "districtOfficeID": 50,
        "fax": "281-374-0863",
        "formattedAddress": "21901 State Highway 249, #350, Houston, TX 77070",
        "latitude": 29.9992931,
        "legislatorID": 102070,
        "longitude": -95.5814819,
        "phone": "281-374-0894",
        "pinColorIndex": 1,
        "spanLat": 0.00629425048828125,
        "spanLon": 0.00629425048828125,
        "stateCode": "TX",
        "updated": "2015-01-20 02:15:43",
        "zipCode": "77070"
    },
    {
        "address": "202 East Pillar Street, #208",
        "chamber": 2,
        "city": "Nacogdoches",
        "county": "Nacogdoches",
        "district": 3,
        "districtOfficeID": 51,
        "fax": "936-564-4276",
        "formattedAddress": "202 E Pillar St, Nacogdoches, TX 75961",
        "latitude": 31.602725982666,
        "legislatorID": 59338,
        "longitude": -94.6555023193359,
        "phone": "936-564-4252",
        "pinColorIndex": 1,
        "spanLat": 0.00629425048828125,
        "spanLon": 0.00629425048828125,
        "stateCode": "TX",
        "updated": "2015-01-20 02:15:43",
        "zipCode": "75961"
    },
    {
        "address": "2402 U.S. 77 Business, #I",
        "chamber": 1,
        "city": "San Benito",
        "county": "Cameron",
        "district": 38,
        "districtOfficeID": 52,
        "fax": "",
        "formattedAddress": "2402 U.S. 77 Business, San Benito, TX 78586",
        "latitude": 26.1193695068359,
        "legislatorID": 56543,
        "longitude": -97.6087646484375,
        "phone": "956-361-2795",
        "pinColorIndex": 1,
        "spanLat": 0.00629425048828125,
        "spanLon": 0.00629425048828125,
        "stateCode": "TX",
        "updated": "2015-01-20 02:15:43",
        "zipCode": "78586"
    },
    {
        "address": "7 North Park Plaza",
        "chamber": 2,
        "city": "Brownsville",
        "county": "Cameron",
        "district": 27,
        "districtOfficeID": 53,
        "fax": "956-548-0440",
        "formattedAddress": "7 N Park Dr, Brownsville, TX 78520",
        "latitude": 25.9134941101074,
        "legislatorID": 5445,
        "longitude": -97.5184173583984,
        "phone": "956-548-0227",
        "pinColorIndex": 1,
        "spanLat": 0.00629425048828125,
        "spanLon": 0.00629425048828125,
        "stateCode": "TX",
        "updated": "2015-01-20 02:15:43",
        "zipCode": "78521"
    },
    {
        "address": "329 Neches Street",
        "chamber": 2,
        "city": "Jacksonville",
        "county": "Cherokee",
        "district": 3,
        "districtOfficeID": 54,
        "fax": "903-589-0203",
        "formattedAddress": "329 Neches St, Jacksonville, TX 75766",
        "latitude": 31.9624576568603,
        "legislatorID": 59338,
        "longitude": -95.2691116333008,
        "phone": "903-589-3003",
        "pinColorIndex": 1,
        "spanLat": 0.00629425048828125,
        "spanLon": 0.00629425048828125,
        "stateCode": "TX",
        "updated": "2015-01-20 02:15:43",
        "zipCode": "75766"
    },
    {
        "address": "2820 South Padre Island Drive, #291",
        "chamber": 2,
        "city": "Corpus Christi",
        "county": "Nueces",
        "district": 20,
        "districtOfficeID": 57,
        "fax": "361-225-0119",
        "formattedAddress": "2820 S Padre Island Dr, Corpus Christi, TX 78415",
        "latitude": 27.7325973510742,
        "legislatorID": 10049,
        "longitude": -97.4184875488281,
        "phone": "361-225-1200",
        "pinColorIndex": 1,
        "spanLat": 0.00629425048828125,
        "spanLon": 0.00629425048828125,
        "stateCode": "TX",
        "updated": "2015-01-20 02:15:43",
        "zipCode": "78415"
    },
    {
        "address": "1100 N Congress Ave",
        "chamber": 1,
        "city": "Austin",
        "county": "Travis",
        "district": 46,
        "districtOfficeID": 58,
        "fax": "512-481-7864",
        "formattedAddress": "1100 N Congress Ave, Austin, TX 78701",
        "latitude": 30.2727451324463,
        "legislatorID": 5448,
        "longitude": -97.7411346435547,
        "phone": "512-481-0506",
        "pinColorIndex": 1,
        "spanLat": 0.00629425048828125,
        "spanLon": 0.00629425048828125,
        "stateCode": "TX",
        "updated": "2015-01-20 02:15:43",
        "zipCode": "78701"
    },
    {
        "address": "1920 North Main, #101",
        "chamber": 2,
        "city": "Belton",
        "county": "Bell",
        "district": 24,
        "districtOfficeID": 61,
        "fax": "254-939-7611",
        "formattedAddress": "1920 N Main St, Belton, TX 76513",
        "latitude": 31.0749225616455,
        "legislatorID": 9952,
        "longitude": -97.4575881958008,
        "phone": "254-939-3562",
        "pinColorIndex": 1,
        "spanLat": 0.00629615783691406,
        "spanLon": 0.00629425048828125,
        "stateCode": "TX",
        "updated": "2015-01-20 02:15:43",
        "zipCode": "76513"
    },
    {
        "address": "410 South Taylor, #1600",
        "chamber": 2,
        "city": "Amarillo",
        "county": "Potter",
        "district": 31,
        "districtOfficeID": 63,
        "fax": "806-374-4607",
        "formattedAddress": "410 S Taylor St, Amarillo, TX 79101",
        "latitude": 35.2090034484863,
        "legislatorID": 49550,
        "longitude": -101.835487365723,
        "phone": "806-374-8994",
        "pinColorIndex": 1,
        "spanLat": 0.00629425048828125,
        "spanLon": 0.00629425048828125,
        "stateCode": "TX",
        "updated": "2015-01-20 02:15:43",
        "zipCode": "79101"
    },
    {
        "address": "3848 F.M. 1960 West, #106",
        "chamber": 1,
        "city": "Houston",
        "county": "Harris",
        "district": 150,
        "districtOfficeID": 67,
        "fax": "",
        "formattedAddress": "1960 West St, Houston, TX 77026",
        "latitude": 29.7794589996338,
        "legislatorID": 49847,
        "longitude": -95.3457717895508,
        "phone": "281-537-5252",
        "pinColorIndex": 1,
        "spanLat": 0.00629425048828125,
        "spanLon": 0.00629425048828125,
        "stateCode": "TX",
        "updated": "2015-01-20 02:15:43",
        "zipCode": "77068"
    },
    {
        "address": "2626 South Loop West, #610",
        "chamber": 1,
        "city": "Houston",
        "county": "Harris",
        "district": 146,
        "districtOfficeID": 69,
        "fax": "",
        "formattedAddress": "2626 South Loop West, #610, Houston, TX, 77054",
        "latitude": 29.678324,
        "legislatorID": 59415,
        "longitude": -95.421125,
        "phone": "",
        "pinColorIndex": 1,
        "spanLat": 0.00629425048828125,
        "spanLon": 0.00629425048828125,
        "stateCode": "TX",
        "updated": "2015-01-20 02:15:43",
        "zipCode": "77054"
    },
    {
        "address": "1100 N Congress Ave",
        "chamber": 1,
        "city": "Austin",
        "county": "Travis",
        "district": 49,
        "districtOfficeID": 71,
        "fax": "512-463-8022",
        "formattedAddress": "1100 N Congress Ave, Austin, TX 78701",
        "latitude": 30.2727451324463,
        "legislatorID": 5556,
        "longitude": -97.7411346435547,
        "phone": "512-463-0668",
        "pinColorIndex": 1,
        "spanLat": 0.00629425048828125,
        "spanLon": 0.00629425048828125,
        "stateCode": "TX",
        "updated": "2015-01-20 02:15:43",
        "zipCode": "78701"
    },
    {
        "address": "1011 Roberts Cut Off Rd",
        "chamber": 1,
        "city": "River Oaks",
        "county": "Tarrant",
        "district": 99,
        "districtOfficeID": 73,
        "fax": "817-738-8362",
        "formattedAddress": "1011 Roberts Cut Off Rd, River Oaks, TX 76114",
        "latitude": 32.775821685791,
        "legislatorID": 49376,
        "longitude": -97.400405883789,
        "phone": "817-738-8333",
        "pinColorIndex": 1,
        "spanLat": 0.00629425048828125,
        "spanLon": 0.0063018798828125,
        "stateCode": "TX",
        "updated": "2015-01-20 02:15:43",
        "zipCode": "76114"
    },
    {
        "address": "12702 Toepperwein Road, #214",
        "chamber": 2,
        "city": "San Antonio",
        "county": "Bexar",
        "district": 21,
        "districtOfficeID": 76,
        "fax": "",
        "formattedAddress": "12702 Toepperwein Rd, San Antonio, TX 78233",
        "latitude": 29.5545272827148,
        "legislatorID": 5465,
        "longitude": -98.3462905883789,
        "phone": "210-657-0095",
        "pinColorIndex": 1,
        "spanLat": 0.00629425048828125,
        "spanLon": 0.00629425048828125,
        "stateCode": "TX",
        "updated": "2015-01-20 02:15:43",
        "zipCode": "78233"
    },
    {
        "address": "6915 Antoine Street, #E",
        "chamber": 1,
        "city": "Houston",
        "county": "Harris",
        "district": 139,
        "districtOfficeID": 78,
        "fax": "",
        "formattedAddress": "6915 Antoine Dr, Houston, TX 77091",
        "latitude": 29.8621692657471,
        "legislatorID": 8018,
        "longitude": -95.4738998413086,
        "phone": "713-683-6363",
        "pinColorIndex": 1,
        "spanLat": 0.00629615783691406,
        "spanLon": 0.0063018798828125,
        "stateCode": "TX",
        "updated": "2015-01-20 02:15:43",
        "zipCode": "77091"
    },
    {
        "address": "387 West Mill Street",
        "chamber": 1,
        "city": "New Braunfels",
        "county": "Comal",
        "district": 73,
        "districtOfficeID": 80,
        "fax": "830-624-8330",
        "formattedAddress": "387 W Mill St, New Braunfels, TX 78130",
        "latitude": 29.7009201049805,
        "legislatorID": 102045,
        "longitude": -98.1278610229492,
        "phone": "830-624-8338",
        "pinColorIndex": 1,
        "spanLat": 0.00629425048828125,
        "spanLon": 0.00629425048828125,
        "stateCode": "TX",
        "updated": "2015-01-20 02:15:43",
        "zipCode": "78130"
    },
    {
        "address": "Post Office Box 850975",
        "chamber": 1,
        "city": "Mesquite",
        "county": "Dallas",
        "district": 113,
        "districtOfficeID": 83,
        "fax": "",
        "formattedAddress": "Post Office Box 850975, Mesquite, TX, 75185",
        "latitude": 32.77,
        "legislatorID": 117468,
        "longitude": -96.6,
        "phone": "",
        "pinColorIndex": 1,
        "spanLat": 0.109106064,
        "spanLon": 0.100273132,
        "stateCode": "TX",
        "updated": "2015-01-20 02:15:43",
        "zipCode": "75185"
    },
    {
        "address": "15217 South Padre Island Dr., #205",
        "chamber": 1,
        "city": "Corpus Christi",
        "county": "Nueces",
        "district": 32,
        "districtOfficeID": 84,
        "fax": "361-949-4634",
        "formattedAddress": "15217 South Padre Island Dr., #205, Corpus Christi, TX 78418",
        "latitude": 27.603003,
        "legislatorID": 5532,
        "longitude": -97.222909,
        "phone": "361-949-4603",
        "pinColorIndex": 1,
        "spanLat": 0.00629425048828125,
        "spanLon": 0.00629425048828125,
        "stateCode": "TX",
        "updated": "2015-01-20 02:15:43",
        "zipCode": "78418"
    },
    {
        "address": "Post Office Box 2448",
        "chamber": 2,
        "city": "Georgetown",
        "county": "Williamson",
        "district": 5,
        "districtOfficeID": 85,
        "fax": "",
        "formattedAddress": "Post Office Box 2448, Georgetown, TX, 78627",
        "latitude": 30.6396636,
        "legislatorID": 116941,
        "longitude": -97.6778726,
        "phone": "",
        "pinColorIndex": 1,
        "spanLat": 0.109106064,
        "spanLon": 0.100273132,
        "stateCode": "TX",
        "updated": "2015-01-20 02:15:43",
        "zipCode": "78627"
    },
    {
        "address": "1444 Montana, #A",
        "chamber": 1,
        "city": "El Paso",
        "county": "El Paso",
        "district": 77,
        "districtOfficeID": 86,
        "fax": "",
        "formattedAddress": "1444 Montana Ave, El Paso, TX 79902",
        "latitude": 31.7719497680664,
        "legislatorID": 102263,
        "longitude": -106.47883605957,
        "phone": "915-544-0789",
        "pinColorIndex": 1,
        "spanLat": 0.00629615783691406,
        "spanLon": 0.00629425048828125,
        "stateCode": "TX",
        "updated": "2015-01-20 02:15:43",
        "zipCode": "79901"
    },
    {
        "address": "5411 Plaza Drive, #D",
        "chamber": 2,
        "city": "Texarkana",
        "county": "Bowie",
        "district": 1,
        "districtOfficeID": 87,
        "fax": "903-223-7963",
        "formattedAddress": "5411 Plaza Dr, Texarkana, TX 75503",
        "latitude": 33.4702262878418,
        "legislatorID": 15354,
        "longitude": -94.070930480957,
        "phone": "903-223-7931",
        "pinColorIndex": 1,
        "spanLat": 0.00629806518554688,
        "spanLon": 0.0063018798828125,
        "stateCode": "TX",
        "updated": "2015-01-20 02:15:43",
        "zipCode": "75503"
    },
    {
        "address": "150 West Parker Road",
        "chamber": 1,
        "city": "Houston",
        "county": "Harris",
        "district": 140,
        "districtOfficeID": 88,
        "fax": "713-694-8613",
        "formattedAddress": "150 West Parker Road, Houston, TX 77076",
        "latitude": 29.860048,
        "legislatorID": 102289,
        "longitude": -95.399813,
        "phone": "713-694-8620",
        "pinColorIndex": 1,
        "spanLat": 0.00629425048828125,
        "spanLon": 0.00629425048828125,
        "stateCode": "TX",
        "updated": "2015-01-20 02:15:43",
        "zipCode": "77076"
    },
    {
        "address": "11110 Bellaire Boulevard, #211",
        "chamber": 2,
        "city": "Houston",
        "county": "Harris",
        "district": 13,
        "districtOfficeID": 90,
        "fax": "281-564-0999",
        "formattedAddress": "11110 Bellaire Blvd, Houston, TX 77072",
        "latitude": 29.7048854827881,
        "legislatorID": 5438,
        "longitude": -95.5732116699219,
        "phone": "281-564-2228",
        "pinColorIndex": 1,
        "spanLat": 0.00629615783691406,
        "spanLon": 0.00629425048828125,
        "stateCode": "TX",
        "updated": "2015-01-20 02:15:43",
        "zipCode": "77072"
    },
    {
        "address": "7373 Broadway St, #202A",
        "chamber": 1,
        "city": "San Antonio",
        "county": "Bexar",
        "district": 121,
        "districtOfficeID": 93,
        "fax": "",
        "formattedAddress": "7373 Broadway St, San Antonio, TX 78209",
        "latitude": 29.4954566955566,
        "legislatorID": 49917,
        "longitude": -98.4674453735352,
        "phone": "912-463-0686",
        "pinColorIndex": 1,
        "spanLat": 0.00629425048828125,
        "spanLon": 0.00629425048828125,
        "stateCode": "TX",
        "updated": "2015-01-20 02:15:43",
        "zipCode": "78209"
    },
    {
        "address": "1501 East Mockingbird, #101",
        "chamber": 1,
        "city": "Victoria",
        "county": "Victoria",
        "district": 30,
        "districtOfficeID": 94,
        "fax": "",
        "formattedAddress": "1501 E Mockingbird Ln, Victoria, TX 77904",
        "latitude": 28.835994720459,
        "legislatorID": 25497,
        "longitude": -96.9915161132812,
        "phone": "361-572-0196",
        "pinColorIndex": 1,
        "spanLat": 0.00629425048828125,
        "spanLon": 0.00629425048828125,
        "stateCode": "TX",
        "updated": "2015-01-20 02:15:43",
        "zipCode": "77903"
    },
    {
        "address": "2716 Commerce Street, #101",
        "chamber": 2,
        "city": "Wichita Falls",
        "county": "Wichita",
        "district": 30,
        "districtOfficeID": 95,
        "fax": "940-689-0194",
        "formattedAddress": "2716 Commerce St, Wichita Falls, TX 76301",
        "latitude": 33.8901786804199,
        "legislatorID": 49388,
        "longitude": -98.4436340332031,
        "phone": "940-689-0191",
        "pinColorIndex": 1,
        "spanLat": 0.00629806518554688,
        "spanLon": 0.00629425048828125,
        "stateCode": "TX",
        "updated": "2015-01-20 02:15:43",
        "zipCode": "76301"
    },
    {
        "address": "2600 Gessner, #212",
        "chamber": 1,
        "city": "Houston",
        "county": "Harris",
        "district": 138,
        "districtOfficeID": 96,
        "fax": "",
        "formattedAddress": "2600 Gessner Dr, Houston, TX 77080",
        "latitude": 29.8195095062256,
        "legislatorID": 10044,
        "longitude": -95.5447463989258,
        "phone": "713-460-2800",
        "pinColorIndex": 1,
        "spanLat": 0.00629615783691406,
        "spanLon": 0.00629425048828125,
        "stateCode": "TX",
        "updated": "2015-01-20 02:15:43",
        "zipCode": "77080"
    },
    {
        "address": "122 East Myrtle",
        "chamber": 1,
        "city": "Angleton",
        "county": "Brazoria",
        "district": 25,
        "districtOfficeID": 97,
        "fax": "979-849-3169",
        "formattedAddress": "122 E Myrtle St, Angleton, TX 77515",
        "latitude": 29.1652965545654,
        "legislatorID": 10099,
        "longitude": -95.4309539794922,
        "phone": "979-848-1770",
        "pinColorIndex": 1,
        "spanLat": 0.00629615783691406,
        "spanLon": 0.0063018798828125,
        "stateCode": "TX",
        "updated": "2015-01-20 02:15:43",
        "zipCode": "77515"
    },
    {
        "address": "421 North Crockett",
        "chamber": 1,
        "city": "Sherman",
        "county": "Grayson",
        "district": 62,
        "districtOfficeID": 98,
        "fax": "",
        "formattedAddress": "421 N Crockett St, Sherman, TX 75090",
        "latitude": 33.6401100158691,
        "legislatorID": 49937,
        "longitude": -96.611572265625,
        "phone": "903-891-7297",
        "pinColorIndex": 1,
        "spanLat": 0.00629806518554688,
        "spanLon": 0.00629425048828125,
        "stateCode": "TX",
        "updated": "2015-01-20 02:15:43",
        "zipCode": "75090"
    },
    {
        "address": "500 W Texas Ave, #880",
        "chamber": 1,
        "city": "Midland",
        "county": "Midland",
        "district": 82,
        "districtOfficeID": 99,
        "fax": "432-684-4864",
        "formattedAddress": "500 W Texas Ave, Midland, TX 79701",
        "latitude": 31.9989585876465,
        "legislatorID": 5485,
        "longitude": -102.080558776856,
        "phone": "432-682-3000",
        "pinColorIndex": 1,
        "spanLat": 0.00629615783691406,
        "spanLon": 0.00629425048828125,
        "stateCode": "TX",
        "updated": "2015-01-20 02:15:43",
        "zipCode": "79701"
    },
    {
        "address": "410 West Grand Parkway, #390",
        "chamber": 1,
        "city": "Katy",
        "county": "Harris",
        "district": 28,
        "districtOfficeID": 101,
        "fax": "",
        "formattedAddress": "410 Grand Pkwy, Katy, TX 77494",
        "latitude": 29.7688484191894,
        "legislatorID": 56718,
        "longitude": -95.776969909668,
        "phone": "281-395-2238",
        "pinColorIndex": 1,
        "spanLat": 0.00629425048828125,
        "spanLon": 0.00629425048828125,
        "stateCode": "TX",
        "updated": "2015-01-20 02:15:43",
        "zipCode": "74751"
    },
    {
        "address": "1 Plaza Square, #203",
        "chamber": 1,
        "city": "Port Arthur",
        "county": "Jefferson",
        "district": 22,
        "districtOfficeID": 102,
        "fax": "409-724-0750",
        "formattedAddress": "1 Plaza Square, Port Arthur, TX 77642",
        "latitude": 29.9142284393311,
        "legislatorID": 25400,
        "longitude": -93.9455871582031,
        "phone": "409-724-0788",
        "pinColorIndex": 1,
        "spanLat": 0.00629615783691406,
        "spanLon": 0.00629425048828125,
        "stateCode": "TX",
        "updated": "2015-01-20 02:15:43",
        "zipCode": "77642"
    },
    {
        "address": "1233 Mercury Drive",
        "chamber": 1,
        "city": "Houston",
        "county": "Harris",
        "district": 143,
        "districtOfficeID": 103,
        "fax": "",
        "formattedAddress": "1233 Mercury Dr, Houston, TX 77029",
        "latitude": 29.7683544158935,
        "legislatorID": 59301,
        "longitude": -95.2475509643555,
        "phone": "713-675-8596",
        "pinColorIndex": 1,
        "spanLat": 0.00629425048828125,
        "spanLon": 0.00629425048828125,
        "stateCode": "TX",
        "updated": "2015-01-20 02:15:43",
        "zipCode": "77029"
    },
    {
        "address": "8145 Park Place Blvd, #100",
        "chamber": 1,
        "city": "Houston",
        "county": "Harris",
        "district": 145,
        "districtOfficeID": 104,
        "fax": "713-649-6454",
        "formattedAddress": "8145 Park Pl Blvd, Houston, TX 77017",
        "latitude": 29.6871681213379,
        "legislatorID": 49524,
        "longitude": -95.2756958007813,
        "phone": "713-649-6563",
        "pinColorIndex": 1,
        "spanLat": 0.00629615783691406,
        "spanLon": 0.00629425048828125,
        "stateCode": "TX",
        "updated": "2015-01-20 02:15:43",
        "zipCode": "77017"
    },
    {
        "address": "1995 Williams Street",
        "chamber": 1,
        "city": "Eagle Pass",
        "county": "Maverick",
        "district": 80,
        "districtOfficeID": 105,
        "fax": "830-757-0317",
        "formattedAddress": "1995 Williams St, Eagle Pass, TX 78852",
        "latitude": 28.704496383667,
        "legislatorID": 5540,
        "longitude": -100.48787689209,
        "phone": "830-773-0860",
        "pinColorIndex": 1,
        "spanLat": 0.00629425048828125,
        "spanLon": 0.00629425048828125,
        "stateCode": "TX",
        "updated": "2015-01-20 02:15:43",
        "zipCode": "78852"
    },
    {
        "address": "440 Louisiana, #575",
        "chamber": 2,
        "city": "Houston",
        "county": "Harris",
        "district": 13,
        "districtOfficeID": 107,
        "fax": "713-236-0604",
        "formattedAddress": "440 Louisiana St, Houston, TX 77002",
        "latitude": 29.7629375457764,
        "legislatorID": 5438,
        "longitude": -95.3646545410156,
        "phone": "713-236-0306",
        "pinColorIndex": 1,
        "spanLat": 0.00629615783691406,
        "spanLon": 0.00629425048828125,
        "stateCode": "TX",
        "updated": "2015-01-20 02:15:43",
        "zipCode": "77002"
    },
    {
        "address": "1790 Lee Trevino, #307",
        "chamber": 1,
        "city": "El Paso",
        "county": "El Paso",
        "district": 79,
        "districtOfficeID": 109,
        "fax": "",
        "formattedAddress": "1790 N Lee Trevino Dr, El Paso, TX 79935",
        "latitude": 31.7647705078125,
        "legislatorID": 5563,
        "longitude": -106.318855285644,
        "phone": "915-590-4349",
        "pinColorIndex": 1,
        "spanLat": 0.00629615783691406,
        "spanLon": 0.00629425048828125,
        "stateCode": "TX",
        "updated": "2015-01-20 02:15:43",
        "zipCode": "79936"
    },
    {
        "address": "1 East Greenway Plaza, #225",
        "chamber": 1,
        "city": "Houston",
        "county": "Harris",
        "district": 133,
        "districtOfficeID": 111,
        "fax": "",
        "formattedAddress": "1 East Greenway Plaza, #225, Houston, TX, 77046",
        "latitude": 29.732679,
        "legislatorID": 57985,
        "longitude": -95.432611,
        "phone": "713-526-3399",
        "pinColorIndex": 1,
        "spanLat": 0.00629425048828125,
        "spanLon": 0.00629425048828125,
        "stateCode": "TX",
        "updated": "2015-01-20 02:15:43",
        "zipCode": "77046"
    },
    {
        "address": "4203 Tennyson Street",
        "chamber": 1,
        "city": "Houston",
        "county": "Harris",
        "district": 134,
        "districtOfficeID": 114,
        "fax": "",
        "formattedAddress": "4203 Tennyson Street, Houston, TX, 77005",
        "latitude": 29.717346,
        "legislatorID": 117479,
        "longitude": -95.44555,
        "phone": "713-320-2077",
        "pinColorIndex": 1,
        "spanLat": 0.00629425048828125,
        "spanLon": 0.00629425048828125,
        "stateCode": "TX",
        "updated": "2015-01-20 02:15:43",
        "zipCode": "77005"
    },
    {
        "address": "Post Office Box 999",
        "chamber": 1,
        "city": "Canton",
        "county": "Van Zandt",
        "district": 2,
        "districtOfficeID": 116,
        "fax": "903-567-0923",
        "formattedAddress": "Post Office Box 999",
        "latitude": 32.556526184082,
        "legislatorID": 9956,
        "longitude": -95.863296508789,
        "phone": "903-567-0921",
        "pinColorIndex": 1,
        "spanLat": 0.0752372741699219,
        "spanLon": 0.128059387207031,
        "stateCode": "TX",
        "updated": "2015-01-20 02:15:43",
        "zipCode": "75103"
    },
    {
        "address": "5787 South Hampton Road, #447",
        "chamber": 1,
        "city": "Dallas",
        "county": "Dallas",
        "district": 111,
        "districtOfficeID": 117,
        "fax": "214-941-6859",
        "formattedAddress": "5787 S Hampton Rd, Dallas, TX 75232",
        "latitude": 32.6764602661133,
        "legislatorID": 5491,
        "longitude": -96.8570175170898,
        "phone": "214-941-3895",
        "pinColorIndex": 1,
        "spanLat": 0.00629806518554688,
        "spanLon": 0.00629425048828125,
        "stateCode": "TX",
        "updated": "2015-01-20 02:15:43",
        "zipCode": "75232"
    },
    {
        "address": "612 Nolana, #410-B",
        "chamber": 2,
        "city": "McAllen",
        "county": "Hidalgo",
        "district": 20,
        "districtOfficeID": 119,
        "fax": "956-664-0602",
        "formattedAddress": "612 Nolana St, McAllen, TX 78504",
        "latitude": 26.2387981414795,
        "legislatorID": 10049,
        "longitude": -98.2196044921875,
        "phone": "956-972-1841",
        "pinColorIndex": 1,
        "spanLat": 0.00629425048828125,
        "spanLon": 0.00629425048828125,
        "stateCode": "TX",
        "updated": "2015-01-20 02:15:43",
        "zipCode": "78504"
    },
    {
        "address": "Post Office Box 535",
        "chamber": 1,
        "city": "Lake Dallas",
        "county": "Denton",
        "district": 64,
        "districtOfficeID": 120,
        "fax": "940-497-0121",
        "formattedAddress": "Post Office Box 535",
        "latitude": 33.1192893981934,
        "legislatorID": 55845,
        "longitude": -97.0255661010742,
        "phone": "940-321-0013",
        "pinColorIndex": 1,
        "spanLat": 0.037384033203125,
        "spanLon": 0.0640335083007812,
        "stateCode": "TX",
        "updated": "2015-01-20 02:15:43",
        "zipCode": "75065"
    },
    {
        "address": "Post Office Box 857",
        "chamber": 1,
        "city": "Eastland",
        "county": "Eastland",
        "district": 60,
        "districtOfficeID": 121,
        "fax": "512-478-8805",
        "formattedAddress": "Post Office Box 857",
        "latitude": 32.4015197753906,
        "legislatorID": 10028,
        "longitude": -98.8175659179688,
        "phone": "800-586-4515",
        "pinColorIndex": 1,
        "spanLat": 0.0376853942871094,
        "spanLon": 0.0640335083007812,
        "stateCode": "TX",
        "updated": "2015-01-20 02:15:43",
        "zipCode": "76448"
    },
    {
        "address": "3304 South Broadway, #103",
        "chamber": 2,
        "city": "Tyler",
        "county": "Smith",
        "district": 1,
        "districtOfficeID": 122,
        "fax": "903-596-9189",
        "formattedAddress": "3304 S Broadway Ave, Tyler, TX 75701",
        "latitude": 32.3131828308105,
        "legislatorID": 15354,
        "longitude": -95.3004455566406,
        "phone": "903-596-9122",
        "pinColorIndex": 1,
        "spanLat": 0.00629425048828125,
        "spanLon": 0.00629425048828125,
        "stateCode": "TX",
        "updated": "2015-01-20 02:15:43",
        "zipCode": "75701"
    },
    {
        "address": "Post Office Box 2501",
        "chamber": 1,
        "city": "Round Rock",
        "county": "Williamson",
        "district": 52,
        "districtOfficeID": 123,
        "fax": "",
        "formattedAddress": "Post Office Box 2501, Round Rock, TX, 78680",
        "latitude": 30.52,
        "legislatorID": 117456,
        "longitude": -97.7,
        "phone": "",
        "pinColorIndex": 1,
        "spanLat": 0.109106064,
        "spanLon": 0.100273132,
        "stateCode": "TX",
        "updated": "2015-01-20 02:15:43",
        "zipCode": "78680"
    },
    {
        "address": "911 Dallas Street",
        "chamber": 2,
        "city": "El Paso",
        "county": "El Paso",
        "district": 29,
        "districtOfficeID": 125,
        "fax": "",
        "formattedAddress": "911 Dallas Street, El Paso, TX 79902",
        "latitude": 31.773756,
        "legislatorID": 117009,
        "longitude": -106.476626,
        "phone": "915-521-3500",
        "pinColorIndex": 1,
        "spanLat": 0.00629615783691406,
        "spanLon": 0.0063018798828125,
        "stateCode": "TX",
        "updated": "2015-01-20 02:15:43",
        "zipCode": "79902"
    },
    {
        "address": "1100 N Congress Ave",
        "chamber": 1,
        "city": "Austin",
        "county": "Travis",
        "district": 48,
        "districtOfficeID": 127,
        "fax": "",
        "formattedAddress": "1100 N Congress Ave, Austin, TX 78701",
        "latitude": 30.2727451324463,
        "legislatorID": 59196,
        "longitude": -97.7411346435547,
        "phone": "512-463-0631",
        "pinColorIndex": 1,
        "spanLat": 0.00629425048828125,
        "spanLon": 0.00629425048828125,
        "stateCode": "TX",
        "updated": "2015-01-20 02:15:43",
        "zipCode": "78701"
    },
    {
        "address": "2110 Forth Worth Highway",
        "chamber": 1,
        "city": "Weatherford",
        "county": "Parker",
        "district": 61,
        "districtOfficeID": 128,
        "fax": "",
        "formattedAddress": "2110 Fort Worth Hwy, Weatherford, TX 76086",
        "latitude": 32.7509880065918,
        "legislatorID": 25435,
        "longitude": -97.73486328125,
        "phone": "817-596-4796",
        "pinColorIndex": 1,
        "spanLat": 0.00629425048828125,
        "spanLon": 0.0063018798828125,
        "stateCode": "TX",
        "updated": "2015-01-20 02:15:43",
        "zipCode": "76086"
    },
    {
        "address": "Post Office Box 30099",
        "chamber": 1,
        "city": "Houston",
        "county": "Harris",
        "district": 148,
        "districtOfficeID": 129,
        "fax": "713-691-3363",
        "formattedAddress": "Post Office Box 30099",
        "latitude": 29.7999992370606,
        "legislatorID": 5503,
        "longitude": -95.370002746582,
        "phone": "731-691-6912",
        "pinColorIndex": 1,
        "spanLat": 0.00629615783691406,
        "spanLon": 0.00629425048828125,
        "stateCode": "TX",
        "updated": "2015-01-20 02:15:43",
        "zipCode": "77249"
    },
    {
        "address": "1407 Washington Street",
        "chamber": 2,
        "city": "Laredo",
        "county": "Webb",
        "district": 21,
        "districtOfficeID": 130,
        "fax": "956-722-8586",
        "formattedAddress": "1407 Washington St, Laredo, TX 78040",
        "latitude": 27.5086326599121,
        "legislatorID": 5465,
        "longitude": -99.5097961425781,
        "phone": "956-722-2293",
        "pinColorIndex": 1,
        "spanLat": 0.00629425048828125,
        "spanLon": 0.0063018798828125,
        "stateCode": "TX",
        "updated": "2015-01-20 02:15:43",
        "zipCode": "78042"
    },
    {
        "address": "6605 Cypresswood Drive, #240",
        "chamber": 1,
        "city": "Spring",
        "county": "Harris",
        "district": 126,
        "districtOfficeID": 132,
        "fax": "",
        "formattedAddress": "6605 Cypresswood Dr, Spring, TX 77379",
        "latitude": 30.0142707824707,
        "legislatorID": 56485,
        "longitude": -95.5074157714844,
        "phone": "281-376-4114",
        "pinColorIndex": 1,
        "spanLat": 0.00629425048828125,
        "spanLon": 0.00629425048828125,
        "stateCode": "TX",
        "updated": "2015-01-20 02:15:43",
        "zipCode": "77379"
    },
    {
        "address": "909 Decker Drive, #104",
        "chamber": 1,
        "city": "Baytown",
        "county": "Harris",
        "district": 128,
        "districtOfficeID": 133,
        "fax": "",
        "formattedAddress": "909 Decker Dr, Baytown, TX 77520",
        "latitude": 29.7361660003662,
        "legislatorID": 50030,
        "longitude": -94.9783782958984,
        "phone": "832-556-2002",
        "pinColorIndex": 1,
        "spanLat": 0.00629425048828125,
        "spanLon": 0.00629425048828125,
        "stateCode": "TX",
        "updated": "2015-01-20 02:15:43",
        "zipCode": "77520"
    },
    {
        "address": "320 South Polk, 1st Floor",
        "chamber": 1,
        "city": "Amarillo",
        "county": "Potter",
        "district": 86,
        "districtOfficeID": 134,
        "fax": "",
        "formattedAddress": "320 S Polk St, Amarillo, TX 79101",
        "latitude": 35.2100524902344,
        "legislatorID": 5581,
        "longitude": -101.836944580078,
        "phone": "806-372-3327",
        "pinColorIndex": 1,
        "spanLat": 0.00629425048828125,
        "spanLon": 0.00629425048828125,
        "stateCode": "TX",
        "updated": "2015-01-20 02:15:43",
        "zipCode": "79101"
    },
    {
        "address": "7101 Burns Street",
        "chamber": 2,
        "city": "Fort Worth",
        "county": "Tarrant",
        "district": 9,
        "districtOfficeID": 135,
        "fax": "",
        "formattedAddress": "7101 Burns St, Richland Hills, TX 76118",
        "latitude": 32.7961845397949,
        "legislatorID": 59194,
        "longitude": -97.2297286987305,
        "phone": "817-590-9280",
        "pinColorIndex": 1,
        "spanLat": 0.00629806518554688,
        "spanLon": 0.00629425048828125,
        "stateCode": "TX",
        "updated": "2015-01-20 02:15:43",
        "zipCode": "76118"
    },
    {
        "address": "1117 Gallagher Drive, #340",
        "chamber": 2,
        "city": "Sherman",
        "county": "Grayson",
        "district": 30,
        "districtOfficeID": 137,
        "fax": "903-868-9666",
        "formattedAddress": "1117 Gallagher Dr, Sherman, TX 75090",
        "latitude": 33.6733055114746,
        "legislatorID": 49388,
        "longitude": -96.6024322509765,
        "phone": "903-868-2347",
        "pinColorIndex": 1,
        "spanLat": 0.00629425048828125,
        "spanLon": 0.00629425048828125,
        "stateCode": "TX",
        "updated": "2015-01-20 02:15:43",
        "zipCode": "75090"
    },
    {
        "address": "855 West Price Road, #22",
        "chamber": 1,
        "city": "Brownsville",
        "county": "Cameron",
        "district": 37,
        "districtOfficeID": 138,
        "fax": "956-542-1618",
        "formattedAddress": "855 W Price Rd, Brownsville, TX 78520",
        "latitude": 25.9378204345703,
        "legislatorID": 5560,
        "longitude": -97.5080490112305,
        "phone": "956-542-1828",
        "pinColorIndex": 1,
        "spanLat": 0.00629425048828125,
        "spanLon": 0.00629425048828125,
        "stateCode": "TX",
        "updated": "2015-01-20 02:15:43",
        "zipCode": "78520"
    },
    {
        "address": "121 East Tom Landry",
        "chamber": 1,
        "city": "Mission",
        "county": "Hidalgo",
        "district": 36,
        "districtOfficeID": 140,
        "fax": "",
        "formattedAddress": "121 East Tom Landry, Mission, TX, 78572",
        "latitude": 26.216075,
        "legislatorID": 5424,
        "longitude": -98.324811,
        "phone": "956-584-8999",
        "pinColorIndex": 1,
        "spanLat": 0.00629425048828125,
        "spanLon": 0.00629425048828125,
        "stateCode": "TX",
        "updated": "2015-01-20 02:15:43",
        "zipCode": "78572"
    },
    {
        "address": "500 South Kansas",
        "chamber": 2,
        "city": "Weslaco",
        "county": "Hidalgo",
        "district": 27,
        "districtOfficeID": 141,
        "fax": "956-447-0583",
        "formattedAddress": "500 S Kansas Ave, Weslaco, TX 78596",
        "latitude": 26.157205581665,
        "legislatorID": 5445,
        "longitude": -97.9898681640625,
        "phone": "956-968-9927",
        "pinColorIndex": 1,
        "spanLat": 0.00629615783691406,
        "spanLon": 0.00629425048828125,
        "stateCode": "TX",
        "updated": "2015-01-20 02:15:43",
        "zipCode": "78596"
    },
    {
        "address": "7121 W US Highway 90, #240",
        "chamber": 2,
        "city": "San Antonio",
        "county": "Bexar",
        "district": 26,
        "districtOfficeID": 142,
        "fax": "210-673-3816",
        "formattedAddress": "7121 W US Highway 90, San Antonio, TX 78227",
        "latitude": 29.4044418334961,
        "legislatorID": 49908,
        "longitude": -98.6309356689453,
        "phone": "210-673-3579",
        "pinColorIndex": 1,
        "spanLat": 0.00629425048828125,
        "spanLon": 0.00629425048828125,
        "stateCode": "TX",
        "updated": "2015-04-09 10:53:35",
        "zipCode": "78227"
    },
    {
        "address": "Post Office Box 21",
        "chamber": 1,
        "city": "Hillister",
        "county": "Tyler",
        "district": 19,
        "districtOfficeID": 144,
        "fax": "",
        "formattedAddress": "Post Office Box 21, Hillister, TX, 77624",
        "latitude": 30.650712,
        "legislatorID": 116939,
        "longitude": -94.345169,
        "phone": "409-283-3714",
        "pinColorIndex": 1,
        "spanLat": 0.109106064,
        "spanLon": 0.100273132,
        "stateCode": "TX",
        "updated": "2015-01-20 02:15:43",
        "zipCode": "77624"
    },
    {
        "address": "800 W Railroad St, #H111",
        "chamber": 1,
        "city": "Weslaco",
        "county": "Hidalgo",
        "district": 39,
        "districtOfficeID": 145,
        "fax": "",
        "formattedAddress": "800 W Railroad St, Weslaco, TX 78596",
        "latitude": 26.1608810424805,
        "legislatorID": 49304,
        "longitude": -97.9958343505859,
        "phone": "956-447-9473",
        "pinColorIndex": 1,
        "spanLat": 0.00629615783691406,
        "spanLon": 0.00629425048828125,
        "stateCode": "TX",
        "updated": "2015-01-20 02:15:43",
        "zipCode": "78596"
    },
    {
        "address": "9601 Jones Road, #215",
        "chamber": 1,
        "city": "Houston",
        "county": "Harris",
        "district": 135,
        "districtOfficeID": 146,
        "fax": "",
        "formattedAddress": "9601 Jones Rd, Houston, TX 77065",
        "latitude": 29.9130973815918,
        "legislatorID": 5502,
        "longitude": -95.5854034423828,
        "phone": "832-912-8380",
        "pinColorIndex": 1,
        "spanLat": 0.00629425048828125,
        "spanLon": 0.0063018798828125,
        "stateCode": "TX",
        "updated": "2015-01-20 02:15:43",
        "zipCode": "77065"
    },
    {
        "address": "14607 San Pedro Ave, #180",
        "chamber": 1,
        "city": "San Antonio",
        "county": "Bexar",
        "district": 122,
        "districtOfficeID": 147,
        "fax": "",
        "formattedAddress": "14607 San Pedro Ave, #180, San Antonio, TX, 782327",
        "latitude": 29.574017,
        "legislatorID": 98049,
        "longitude": -98.480115,
        "phone": "210-402-5402",
        "pinColorIndex": 1,
        "spanLat": 0.109106064,
        "spanLon": 0.100273132,
        "stateCode": "TX",
        "updated": "2015-01-20 02:15:43",
        "zipCode": "78232"
    },
    {
        "address": "Post Office Box 8587",
        "chamber": 2,
        "city": "Midland",
        "county": "Midland",
        "district": 31,
        "districtOfficeID": 148,
        "fax": "432-563-0653",
        "formattedAddress": "Post Office Box 8587",
        "latitude": 32.0200004577637,
        "legislatorID": 49550,
        "longitude": -102.129997253418,
        "phone": "432-563-0031",
        "pinColorIndex": 1,
        "spanLat": 0.00629425048828125,
        "spanLon": 0.00629425048828125,
        "stateCode": "TX",
        "updated": "2015-01-20 02:15:43",
        "zipCode": "79708"
    },
    {
        "address": "6301 Gaston Avenue, #536",
        "chamber": 1,
        "city": "Dallas",
        "county": "Dallas",
        "district": 107,
        "districtOfficeID": 149,
        "fax": "",
        "formattedAddress": "6301 Gaston Ave, Dallas, TX 75214",
        "latitude": 32.8130912780762,
        "legislatorID": 117472,
        "longitude": -96.7541961669922,
        "phone": "",
        "pinColorIndex": 1,
        "spanLat": 0.00629425048828125,
        "spanLon": 0.00629425048828125,
        "stateCode": "TX",
        "updated": "2015-01-20 02:15:43",
        "zipCode": "75214"
    },
    {
        "address": "803 Yale Street",
        "chamber": 2,
        "city": "Houston",
        "county": "Harris",
        "district": 15,
        "districtOfficeID": 152,
        "fax": "713-864-5287",
        "formattedAddress": "803 Yale St, Houston, TX 77007",
        "latitude": 29.785364151001,
        "legislatorID": 5464,
        "longitude": -95.399185180664,
        "phone": "713-864-8701",
        "pinColorIndex": 1,
        "spanLat": 0.00629425048828125,
        "spanLon": 0.00629425048828125,
        "stateCode": "TX",
        "updated": "2015-01-20 02:15:43",
        "zipCode": "77007"
    },
    {
        "address": "5445 Alameda, #501",
        "chamber": 1,
        "city": "Houston",
        "county": "Harris",
        "district": 147,
        "districtOfficeID": 153,
        "fax": "",
        "formattedAddress": "5445 Alameda Point Ln, Houston, TX 77041",
        "latitude": 29.8611946105957,
        "legislatorID": 5479,
        "longitude": -95.5959396362305,
        "phone": "713-520-5355",
        "pinColorIndex": 1,
        "spanLat": 0.00629615783691406,
        "spanLon": 0.00629425048828125,
        "stateCode": "TX",
        "updated": "2015-01-20 02:15:43",
        "zipCode": "77004"
    },
    {
        "address": "Post Office Box 2376",
        "chamber": 1,
        "city": "Abilene",
        "county": "Taylor",
        "district": 71,
        "districtOfficeID": 155,
        "fax": "",
        "formattedAddress": "Post Office Box 2376",
        "latitude": 32.3800010681152,
        "legislatorID": 58144,
        "longitude": -99.6900024414062,
        "phone": "325-670-0384",
        "pinColorIndex": 1,
        "spanLat": 0.00629425048828125,
        "spanLon": 0.00629425048828125,
        "stateCode": "TX",
        "updated": "2015-01-20 02:15:43",
        "zipCode": "79604-2376"
    },
    {
        "address": "401 Austin, #101",
        "chamber": 2,
        "city": "Big Spring",
        "county": "Howard",
        "district": 31,
        "districtOfficeID": 156,
        "fax": "432-268-9899",
        "formattedAddress": "401 Austin St, Big Spring, TX 79720",
        "latitude": 32.2537345886231,
        "legislatorID": 49550,
        "longitude": -101.470748901367,
        "phone": "432-268-9909",
        "pinColorIndex": 1,
        "spanLat": 0.00629806518554688,
        "spanLon": 0.00629425048828125,
        "stateCode": "TX",
        "updated": "2015-01-20 02:15:43",
        "zipCode": "79720"
    },
    {
        "address": "102 West Houston",
        "chamber": 1,
        "city": "Marshall",
        "county": "Harrison",
        "district": 5,
        "districtOfficeID": 157,
        "fax": "903-569-8889",
        "formattedAddress": "102 W Houston St, Marshall, TX 75670",
        "latitude": 32.5446357727051,
        "legislatorID": 50173,
        "longitude": -94.3673324584961,
        "phone": "903-935-1141",
        "pinColorIndex": 1,
        "spanLat": 0.00629425048828125,
        "spanLon": 0.00629425048828125,
        "stateCode": "TX",
        "updated": "2015-01-20 02:15:43",
        "zipCode": "75671"
    },
    {
        "address": "Post Office Box 270547",
        "chamber": 1,
        "city": "Flower Mound",
        "county": "Dallas",
        "district": 63,
        "districtOfficeID": 161,
        "fax": "",
        "formattedAddress": "Post Office Box 270547",
        "latitude": 33.0478858947754,
        "legislatorID": 59370,
        "longitude": -97.0606002807617,
        "phone": "972-724-8477",
        "pinColorIndex": 1,
        "spanLat": 0.09332275390625,
        "spanLon": 0.0904312133789062,
        "stateCode": "TX",
        "updated": "2015-01-20 02:15:43",
        "zipCode": "75028"
    },
    {
        "address": "10101 Fondren Road, #500",
        "chamber": 1,
        "city": "Houston",
        "county": "Harris",
        "district": 131,
        "districtOfficeID": 162,
        "fax": "",
        "formattedAddress": "10101 Fondren Rd, Houston, TX 77096",
        "latitude": 29.6701183319092,
        "legislatorID": 25503,
        "longitude": -95.507942199707,
        "phone": "713-776-0505",
        "pinColorIndex": 1,
        "spanLat": 0.00629615783691406,
        "spanLon": 0.00629425048828125,
        "stateCode": "TX",
        "updated": "2015-01-20 02:15:43",
        "zipCode": "77096"
    },
    {
        "address": "6653 San Pedro Ave.",
        "chamber": 1,
        "city": "San Antonio",
        "county": "Bexar",
        "district": 123,
        "districtOfficeID": 165,
        "fax": "",
        "formattedAddress": "6653 San Pedro Avenue, San Antonio, TX 78216",
        "latitude": 29.500379,
        "legislatorID": 70466,
        "longitude": -98.4995733,
        "phone": "210-414-1025",
        "pinColorIndex": 1,
        "spanLat": 0.00629425048828125,
        "spanLon": 0.00629425048828125,
        "stateCode": "TX",
        "updated": "2015-03-25 15:43:25",
        "zipCode": "78216"
    },
    {
        "address": "2612 Main Street, #100",
        "chamber": 2,
        "city": "Dallas",
        "county": "Dallas",
        "district": 23,
        "districtOfficeID": 170,
        "fax": "214-749-7830",
        "formattedAddress": "2612 Main St, Dallas, TX 75226",
        "latitude": 32.7832183837891,
        "legislatorID": 5463,
        "longitude": -96.7858047485352,
        "phone": "214-741-0123",
        "pinColorIndex": 1,
        "spanLat": 0.00629425048828125,
        "spanLon": 0.00629425048828125,
        "stateCode": "TX",
        "updated": "2015-01-20 02:15:43",
        "zipCode": "75226"
    },
    {
        "address": "100 East 4th, #100",
        "chamber": 2,
        "city": "Pecos",
        "county": "Reeves",
        "district": 19,
        "districtOfficeID": 172,
        "fax": "432-447-0275",
        "formattedAddress": "100 E 4th St, Pecos, TX 79772",
        "latitude": 31.4245948791504,
        "legislatorID": 15218,
        "longitude": -103.494934082031,
        "phone": "432-447-0270",
        "pinColorIndex": 1,
        "spanLat": 0.00629615783691406,
        "spanLon": 0.00629425048828125,
        "stateCode": "TX",
        "updated": "2015-01-20 02:15:43",
        "zipCode": "79772"
    },
    {
        "address": "1100 N Congress Ave",
        "chamber": 1,
        "city": "Austin",
        "county": "Travis",
        "district": 51,
        "districtOfficeID": 176,
        "fax": "512-463-5896",
        "formattedAddress": "1100 N Congress Ave, Austin, TX 78701",
        "latitude": 30.2727451324463,
        "legislatorID": 49637,
        "longitude": -97.7411346435547,
        "phone": "512-463-0674",
        "pinColorIndex": 1,
        "spanLat": 0.00629425048828125,
        "spanLon": 0.00629425048828125,
        "stateCode": "TX",
        "updated": "2015-01-20 02:15:43",
        "zipCode": "78701"
    },
    {
        "address": "4601 50th Street, #216",
        "chamber": 1,
        "city": "Lubbock",
        "county": "Lubbock",
        "district": 84,
        "districtOfficeID": 179,
        "fax": "",
        "formattedAddress": "4601 50th Street, #216, Lubbock, TX, 79414",
        "latitude": 33.547949,
        "legislatorID": 117461,
        "longitude": -101.909978,
        "phone": "806-853-8275",
        "pinColorIndex": 1,
        "spanLat": 0.00629425048828125,
        "spanLon": 0.00629425048828125,
        "stateCode": "TX",
        "updated": "2015-01-20 02:15:43",
        "zipCode": "79414"
    },
    {
        "address": "1409 South Lamar #5",
        "chamber": 1,
        "city": "Dallas",
        "county": "Dallas",
        "district": 100,
        "districtOfficeID": 185,
        "fax": "",
        "formattedAddress": "1409 S Lamar St, Dallas, TX 75215",
        "latitude": 32.7670669555664,
        "legislatorID": 116968,
        "longitude": -96.7953720092773,
        "phone": "214-565-5680",
        "pinColorIndex": 1,
        "spanLat": 0.00629425048828125,
        "spanLon": 0.00629425048828125,
        "stateCode": "TX",
        "updated": "2015-01-20 02:15:43",
        "zipCode": "75215"
    },
    {
        "address": "5787 South Hampton Road, #385",
        "chamber": 2,
        "city": "Dallas",
        "county": "Dallas",
        "district": 23,
        "districtOfficeID": 186,
        "fax": "214-467-0050",
        "formattedAddress": "5787 S Hampton Rd, Dallas, TX 75232",
        "latitude": 32.6764602661133,
        "legislatorID": 5463,
        "longitude": -96.8570175170898,
        "phone": "214-467-0123",
        "pinColorIndex": 1,
        "spanLat": 0.00629806518554688,
        "spanLon": 0.00629425048828125,
        "stateCode": "TX",
        "updated": "2015-01-20 02:15:43",
        "zipCode": "75232"
    },
    {
        "address": "1910 Fredericksburg Road",
        "chamber": 1,
        "city": "San Antonio",
        "county": "Bexar",
        "district": 116,
        "districtOfficeID": 188,
        "fax": "",
        "formattedAddress": "1910 Fredericksburg Rd, San Antonio, TX 78201",
        "latitude": 29.4634895324707,
        "legislatorID": 49471,
        "longitude": -98.5249481201172,
        "phone": "210-737-7200",
        "pinColorIndex": 1,
        "spanLat": 0.00629425048828125,
        "spanLon": 0.00629425048828125,
        "stateCode": "TX",
        "updated": "2015-01-20 02:15:43",
        "zipCode": "78201"
    },
    {
        "address": "Post Office Box 965",
        "chamber": 1,
        "city": "Dayton",
        "county": "Liberty",
        "district": 18,
        "districtOfficeID": 189,
        "fax": "",
        "formattedAddress": "Post Office Box 965",
        "latitude": 30.0466041564941,
        "legislatorID": 49663,
        "longitude": -94.8852005004883,
        "phone": "936-258-8135",
        "pinColorIndex": 1,
        "spanLat": 0.154537200927734,
        "spanLon": 0.256118774414062,
        "stateCode": "TX",
        "updated": "2015-01-20 02:15:43",
        "zipCode": "77535"
    },
    {
        "address": "11129 Circle Way, #101",
        "chamber": 2,
        "city": "Lake Jackson",
        "county": "Brazoria",
        "district": 17,
        "districtOfficeID": 190,
        "fax": "979-480-9122",
        "formattedAddress": "11129 Circle Way, #101, Lake Jackson, TX 77566",
        "latitude": 29.0408504,
        "legislatorID": 110896,
        "longitude": -95.4518594,
        "phone": "979-480-0994",
        "pinColorIndex": 1,
        "spanLat": 0.00629425048828125,
        "spanLon": 0.00629425048828125,
        "stateCode": "TX",
        "updated": "2015-01-20 02:15:43",
        "zipCode": "77566"
    },
    {
        "address": "36 West Beauregard, #517",
        "chamber": 1,
        "city": "San Angelo",
        "county": "Tom Green",
        "district": 72,
        "districtOfficeID": 192,
        "fax": "",
        "formattedAddress": "36 W Beauregard Ave, San Angelo, TX 76903",
        "latitude": 31.4623260498047,
        "legislatorID": 49842,
        "longitude": -100.437355041504,
        "phone": "325-658-7313",
        "pinColorIndex": 1,
        "spanLat": 0.00629425048828125,
        "spanLon": 0.0063018798828125,
        "stateCode": "TX",
        "updated": "2015-01-20 02:15:43",
        "zipCode": "76903"
    },
    {
        "address": "174 Calder Road, #116",
        "chamber": 2,
        "city": "League City",
        "county": "Galveston",
        "district": 11,
        "districtOfficeID": 195,
        "fax": "281-554-9240",
        "formattedAddress": "174 Calder Dr, League City, TX 77573",
        "latitude": 29.5036792755127,
        "legislatorID": 25471,
        "longitude": -95.1047592163086,
        "phone": "281-338-0924",
        "pinColorIndex": 1,
        "spanLat": 0.00629615783691406,
        "spanLon": 0.0063018798828125,
        "stateCode": "TX",
        "updated": "2015-01-20 02:15:43",
        "zipCode": "77573"
    },
    {
        "address": "900 Austin Avenue, #403",
        "chamber": 2,
        "city": "Waco",
        "county": "McLennan",
        "district": 22,
        "districtOfficeID": 196,
        "fax": "254-776-2843",
        "formattedAddress": "900 Austin Ave, Waco, TX 76701",
        "latitude": 31.5532512664795,
        "legislatorID": 127373,
        "longitude": -97.1352920532227,
        "phone": "254-772-6225",
        "pinColorIndex": 1,
        "spanLat": 0.00629615783691406,
        "spanLon": 0.00629425048828125,
        "stateCode": "TX",
        "updated": "2015-01-20 02:15:43",
        "zipCode": "76701"
    },
    {
        "address": "11200 East Executive Dr. #130",
        "chamber": 1,
        "city": "Richardson",
        "county": "Dallas",
        "district": 112,
        "districtOfficeID": 197,
        "fax": "972-470-0789",
        "formattedAddress": "1200 East Executive Dr. #130, Richardson, TX 75081",
        "latitude": 32.9623221,
        "legislatorID": 102062,
        "longitude": -96.7104318,
        "phone": "972-234-8980",
        "pinColorIndex": 1,
        "spanLat": 0.00629425048828125,
        "spanLon": 0.00629425048828125,
        "stateCode": "TX",
        "updated": "2015-01-20 02:15:43",
        "zipCode": "75081"
    },
    {
        "address": "603 North Goliad",
        "chamber": 1,
        "city": "Rockwall",
        "county": "Rockwall",
        "district": 89,
        "districtOfficeID": 201,
        "fax": "",
        "formattedAddress": "603 N Goliad St, Rockwall, TX 75087",
        "latitude": 32.9347381591797,
        "legislatorID": 50001,
        "longitude": -96.460334777832,
        "phone": "972-772-8525",
        "pinColorIndex": 1,
        "spanLat": 0.00629806518554688,
        "spanLon": 0.00629425048828125,
        "stateCode": "TX",
        "updated": "2015-01-20 02:15:43",
        "zipCode": "75087"
    },
    {
        "address": "1111 West Mockingbird Lane, #1330",
        "chamber": 1,
        "city": "Dallas",
        "county": "Dallas",
        "district": 103,
        "districtOfficeID": 202,
        "fax": "",
        "formattedAddress": "1111 W Mockingbird Ln, Dallas, TX 75247",
        "latitude": 32.8186073303223,
        "legislatorID": 49874,
        "longitude": -96.8698883056641,
        "phone": "214-943-6081",
        "pinColorIndex": 1,
        "spanLat": 0.00629425048828125,
        "spanLon": 0.0063018798828125,
        "stateCode": "TX",
        "updated": "2015-01-20 02:15:43",
        "zipCode": "75247"
    },
    {
        "address": "15260 Hwy 105 W., Suite 230-H, Box 5",
        "chamber": 2,
        "city": "Montgomery",
        "county": "Montgomery",
        "district": 3,
        "districtOfficeID": 203,
        "fax": "936-756-5170",
        "formattedAddress": "15260 Texas 105 #230, Montgomery, TX 77356",
        "latitude": 30.3584753,
        "legislatorID": 59338,
        "longitude": -95.5933327,
        "phone": "936-588-1713",
        "pinColorIndex": 1,
        "spanLat": 0.00629615783691406,
        "spanLon": 0.00629425048828125,
        "stateCode": "TX",
        "updated": "2015-01-20 02:15:43",
        "zipCode": "77356"
    },
    {
        "address": "2530 Southwest Military Drive, #103",
        "chamber": 2,
        "city": "San Antonio",
        "county": "Bexar",
        "district": 19,
        "districtOfficeID": 205,
        "fax": "210-932-2572",
        "formattedAddress": "2530 SW Military Dr, San Antonio, TX 78224",
        "latitude": 29.3561840057373,
        "legislatorID": 15218,
        "longitude": -98.5358505249023,
        "phone": "210-932-2568",
        "pinColorIndex": 1,
        "spanLat": 0.00629425048828125,
        "spanLon": 0.0063018798828125,
        "stateCode": "TX",
        "updated": "2015-01-20 02:15:43",
        "zipCode": "78224"
    },
    {
        "address": "2915 Atkinson Drive",
        "chamber": 2,
        "city": "Lufkin",
        "county": "Angelina",
        "district": 3,
        "districtOfficeID": 210,
        "fax": "",
        "formattedAddress": "2915 Atkinson Dri, Lufkin, TX 75901",
        "latitude": 31.3560698,
        "legislatorID": 59338,
        "longitude": -94.6871759,
        "phone": "936-699-4988",
        "pinColorIndex": 1,
        "spanLat": 0.00629425048828125,
        "spanLon": 0.00629425048828125,
        "stateCode": "TX",
        "updated": "2015-01-20 02:15:43",
        "zipCode": "75901"
    },
    {
        "address": "10527 Homestead Rd",
        "chamber": 1,
        "city": "Houston",
        "county": "Harris",
        "district": 141,
        "districtOfficeID": 213,
        "fax": "",
        "formattedAddress": "10527 Homestead Rd, Houston, TX 77016",
        "latitude": 29.86549949646,
        "legislatorID": 8012,
        "longitude": -95.3009033203125,
        "phone": "713-633-3390",
        "pinColorIndex": 1,
        "spanLat": 0.00629615783691406,
        "spanLon": 0.00629425048828125,
        "stateCode": "TX",
        "updated": "2015-01-20 02:15:43",
        "zipCode": "77016"
    },
    {
        "address": "101 East Methvin, #301",
        "chamber": 2,
        "city": "Longview",
        "county": "Gregg",
        "district": 1,
        "districtOfficeID": 214,
        "fax": "903-753-8568",
        "formattedAddress": "101 E Methvin St, Longview, TX 75601",
        "latitude": 32.496208190918,
        "legislatorID": 15354,
        "longitude": -94.7389373779297,
        "phone": "903-753-8137",
        "pinColorIndex": 1,
        "spanLat": 0.00629425048828125,
        "spanLon": 0.00629425048828125,
        "stateCode": "TX",
        "updated": "2015-01-20 02:15:43",
        "zipCode": "75601"
    },
    {
        "address": "1100 N Congress Ave",
        "chamber": 1,
        "city": "Austin",
        "county": "Travis",
        "district": 47,
        "districtOfficeID": 217,
        "fax": "512-463-0565",
        "formattedAddress": "1100 N Congress Ave, Austin, TX 78701",
        "latitude": 30.2727451324463,
        "legislatorID": 116948,
        "longitude": -97.7411346435547,
        "phone": "512-463-0652",
        "pinColorIndex": 1,
        "spanLat": 0.00629425048828125,
        "spanLon": 0.00629425048828125,
        "stateCode": "TX",
        "updated": "2015-01-20 02:15:43",
        "zipCode": "78701"
    },
    {
        "address": "600 S. Tyler, #1402",
        "chamber": 1,
        "city": "Amarillo",
        "county": "Potter",
        "district": 87,
        "districtOfficeID": 218,
        "fax": "",
        "formattedAddress": "600 S Tyler St, Amarillo, TX 79101",
        "latitude": 35.2073026,
        "legislatorID": 116959,
        "longitude": -101.8384545,
        "phone": "806-374-8787",
        "pinColorIndex": 1,
        "spanLat": 0.00629425048828125,
        "spanLon": 0.00629425048828125,
        "stateCode": "TX",
        "updated": "2015-01-20 02:15:43",
        "zipCode": "79105"
    },
    {
        "address": "1705 Judson Rd., #D2",
        "chamber": 1,
        "city": "Longview",
        "county": "Gregg",
        "district": 7,
        "districtOfficeID": 219,
        "fax": "903-533-9877",
        "formattedAddress": "1705 Judson Rd, Longview, TX 75601",
        "latitude": 32.525843,
        "legislatorID": 116936,
        "longitude": -94.74326,
        "phone": "903-533-9226",
        "pinColorIndex": 1,
        "spanLat": 0.00629425048828125,
        "spanLon": 0.00629425048828125,
        "stateCode": "TX",
        "updated": "2015-01-20 02:15:43",
        "zipCode": "75601"
    },
    {
        "address": "5425 Polk Street, #125",
        "chamber": 2,
        "city": "Houston",
        "county": "Harris",
        "district": 6,
        "districtOfficeID": 220,
        "fax": "",
        "formattedAddress": "5425 Polk Street, #125, Houston, TX 77023",
        "latitude": 29.7340229,
        "legislatorID": 49734,
        "longitude": -95.3176945,
        "phone": "713-923-7575",
        "pinColorIndex": 1,
        "spanLat": 0.00629425048828125,
        "spanLon": 0.00629425048828125,
        "stateCode": "TX",
        "updated": "2015-01-20 02:15:43",
        "zipCode": "77023"
    },
    {
        "address": "100 W. Eldorado Pkwy",
        "chamber": 1,
        "city": "Little Elm",
        "county": "Denton",
        "district": 106,
        "districtOfficeID": 221,
        "fax": null,
        "formattedAddress": "100 W. Eldorado Pkwy, Floor 2, Little Elm, TX 75068",
        "latitude": 33.1579221,
        "legislatorID": 115056,
        "longitude": -96.9398985,
        "phone": "469-362-0500",
        "pinColorIndex": 1,
        "spanLat": 0.0026979606,
        "spanLon": 0.0026979606,
        "stateCode": "TX",
        "updated": "2015-01-20 02:15:43",
        "zipCode": "75068"
    },
    {
        "address": "102 W Houston St",
        "chamber": 1,
        "city": "Marshall",
        "county": "Harrison",
        "district": 9,
        "districtOfficeID": 222,
        "fax": null,
        "formattedAddress": "102 West Houston Street, Marshall, TX 75670, USA",
        "latitude": 32.5446408,
        "legislatorID": 138313,
        "longitude": -94.367499,
        "phone": "903-935-1141",
        "pinColorIndex": 1,
        "spanLat": 0.002697960583,
        "spanLon": 0.002697960583,
        "stateCode": "TX",
        "updated": "2015-01-20 02:15:43",
        "zipCode": "75670"
    },
    {
        "address": "2915 Atkinson Dr",
        "chamber": 1,
        "city": "Lufkin",
        "county": "Angelina",
        "district": 57,
        "districtOfficeID": 223,
        "fax": null,
        "formattedAddress": "2915 Atkinson Drive, Lufkin, TX 75901, USA",
        "latitude": 31.3560698,
        "legislatorID": 138345,
        "longitude": -94.6871759,
        "phone": "936-634-2762",
        "pinColorIndex": 1,
        "spanLat": 0.002697960583,
        "spanLon": 0.002697960583,
        "stateCode": "TX",
        "updated": "2015-01-20 02:15:43",
        "zipCode": "75901"
    },
    {
        "address": "174 Calder Dr, #116",
        "chamber": 1,
        "city": "League City",
        "county": "Galveston",
        "district": 24,
        "districtOfficeID": 224,
        "fax": null,
        "formattedAddress": "174 Calder Road #116, League City, TX 77573, USA",
        "latitude": 29.503678,
        "legislatorID": 138328,
        "longitude": -95.104769,
        "phone": "281-338-0924",
        "pinColorIndex": 1,
        "spanLat": 0.002697960583,
        "spanLon": 0.002697960583,
        "stateCode": "TX",
        "updated": "2015-01-20 02:15:43",
        "zipCode": "77573"
    },
    {
        "address": "P.O. Box 2129 ",
        "chamber": 1,
        "city": "Pearland",
        "county": "Brazoria",
        "district": 29,
        "districtOfficeID": 225,
        "fax": null,
        "formattedAddress": "P.O. Box 2129 Pearland, TX 77588",
        "latitude": 29.5601098,
        "legislatorID": 131451,
        "longitude": -95.2794117,
        "phone": "281-485-6565",
        "pinColorIndex": 1,
        "spanLat": 0.002697960583,
        "spanLon": 0.002697960583,
        "stateCode": "TX",
        "updated": "2015-01-20 02:15:43",
        "zipCode": "77588"
    },
    {
        "address": "200 E Ferguson St, #506",
        "chamber": 1,
        "city": "Tyler",
        "county": "Smith",
        "district": 6,
        "districtOfficeID": 226,
        "fax": null,
        "formattedAddress": "200 East Ferguson Street #506, Tyler, TX 75702, USA",
        "latitude": 32.3519538,
        "legislatorID": 138312,
        "longitude": -95.299346,
        "phone": "903-592-0900",
        "pinColorIndex": 1,
        "spanLat": 0.002697960583,
        "spanLon": 0.002697960583,
        "stateCode": "TX",
        "updated": "2015-01-20 02:15:43",
        "zipCode": "75702"
    },
    {
        "address": "130 Industrial Blvd, #126",
        "chamber": 1,
        "city": "Sugar Land",
        "county": "Fort Bend",
        "district": 26,
        "districtOfficeID": 227,
        "fax": null,
        "formattedAddress": "130 Industrial Boulevard #126, Sugar Land, TX 77478, USA",
        "latitude": 29.628124,
        "legislatorID": 138333,
        "longitude": -95.6050941,
        "phone": "281-980-0117",
        "pinColorIndex": 1,
        "spanLat": 0.002697960583,
        "spanLon": 0.002697960583,
        "stateCode": "TX",
        "updated": "2015-01-20 02:15:43",
        "zipCode": "77478"
    },
    {
        "address": "834 3rd St",
        "chamber": 1,
        "city": "Rosenberg",
        "county": "Fort Bend",
        "district": 85,
        "districtOfficeID": 228,
        "fax": null,
        "formattedAddress": "834 3rd Street, Rosenberg, TX 77471, USA",
        "latitude": 29.5594694,
        "legislatorID": 49730,
        "longitude": -95.8069835,
        "phone": "281-232-7900",
        "pinColorIndex": 1,
        "spanLat": 0.002697960583,
        "spanLon": 0.002697960583,
        "stateCode": "TX",
        "updated": "2015-01-20 02:15:43",
        "zipCode": "77471"
    },
    {
        "address": "100 E Corsicana St, #205",
        "chamber": 1,
        "city": "Athens",
        "county": "Henderson",
        "district": 4,
        "districtOfficeID": 229,
        "fax": null,
        "formattedAddress": "100 East Corsicana Street #205, Athens, TX 75751, USA",
        "latitude": 32.2043575,
        "legislatorID": 67718,
        "longitude": -95.8550669,
        "phone": "",
        "pinColorIndex": 1,
        "spanLat": 0.002697960583,
        "spanLon": 0.002697960583,
        "stateCode": "TX",
        "updated": "2015-01-20 02:15:43",
        "zipCode": "75751"
    },
    {
        "address": "4103 Texas Ave, #103",
        "chamber": 1,
        "city": "Bryan",
        "county": "Brazos",
        "district": 14,
        "districtOfficeID": 230,
        "fax": null,
        "formattedAddress": "4103 Texas Avenue #103, Bryan, TX 77802, USA",
        "latitude": 30.634466,
        "legislatorID": 138322,
        "longitude": -96.342076,
        "phone": "979-260-5040",
        "pinColorIndex": 1,
        "spanLat": 0.002697960583,
        "spanLon": 0.002697960583,
        "stateCode": "TX",
        "updated": "2015-01-20 02:15:43",
        "zipCode": "77802"
    },
    {
        "address": "2305 Ridge Rd, #202b",
        "chamber": 1,
        "city": "Rockwall",
        "county": "Rockwall",
        "district": 33,
        "districtOfficeID": 231,
        "fax": null,
        "formattedAddress": "2305 Ridge Road #202b, Rockwall, TX 75087, USA",
        "latitude": 32.9014458,
        "legislatorID": 138338,
        "longitude": -96.465518,
        "phone": "972-722-7887",
        "pinColorIndex": 1,
        "spanLat": 0.002697960583,
        "spanLon": 0.002697960583,
        "stateCode": "TX",
        "updated": "2015-01-20 02:15:43",
        "zipCode": "75087"
    },
    {
        "address": "115 W Virginia St, #103",
        "chamber": 1,
        "city": "McKinney",
        "county": "Collin",
        "district": 70,
        "districtOfficeID": 232,
        "fax": null,
        "formattedAddress": "115 West Virginia Street #103, McKinney, TX 75069, USA",
        "latitude": 33.1978259,
        "legislatorID": 138362,
        "longitude": -96.6163992,
        "phone": "972-548-7500",
        "pinColorIndex": 1,
        "spanLat": 0.002697960583,
        "spanLon": 0.002697960583,
        "stateCode": "TX",
        "updated": "2015-01-20 02:15:43",
        "zipCode": "75069"
    },
    {
        "address": "777 E 15th St, #202",
        "chamber": 1,
        "city": "Plano",
        "county": "Collin",
        "district": 67,
        "districtOfficeID": 233,
        "fax": null,
        "formattedAddress": "777 East 15th Street #202, Plano, TX 75074, USA",
        "latitude": 33.020149,
        "legislatorID": 138355,
        "longitude": -96.705374,
        "phone": "972-424-1419",
        "pinColorIndex": 1,
        "spanLat": 0.002697960583,
        "spanLon": 0.002697960583,
        "stateCode": "TX",
        "updated": "2015-01-20 02:15:43",
        "zipCode": "75074"
    },
    {
        "address": "10210 N Central Expy, #220",
        "chamber": 1,
        "city": "Dallas",
        "county": "Dallas",
        "district": 114,
        "districtOfficeID": 234,
        "fax": null,
        "formattedAddress": "10210 North Central Expressway #220, Dallas, TX 75231, USA",
        "latitude": 32.8852904,
        "legislatorID": 138377,
        "longitude": -96.7692695,
        "phone": "214-363-8700",
        "pinColorIndex": 1,
        "spanLat": 0.002697960583,
        "spanLon": 0.002697960583,
        "stateCode": "TX",
        "updated": "2015-01-20 02:15:43",
        "zipCode": "75231"
    },
    {
        "address": "3730 S Lancaster Rd, #160",
        "chamber": 1,
        "city": "Dallas",
        "county": "Dallas",
        "district": 110,
        "districtOfficeID": 235,
        "fax": null,
        "formattedAddress": "3730 South Lancaster Road #160, Dallas, TX 75216, USA",
        "latitude": 32.7031288,
        "legislatorID": 137784,
        "longitude": -96.7977565,
        "phone": "214-371-3300",
        "pinColorIndex": 1,
        "spanLat": 0.002697960583,
        "spanLon": 0.002697960583,
        "stateCode": "TX",
        "updated": "2015-01-20 02:15:43",
        "zipCode": "75216"
    },
    {
        "address": "1029 W Rosemeade Pkwy, #108",
        "chamber": 1,
        "city": "Carrollton",
        "county": "Denton",
        "district": 65,
        "districtOfficeID": 236,
        "fax": null,
        "formattedAddress": "1029 West Rosemeade Parkway #108, Carrollton, TX 75007, USA",
        "latitude": 33.009913,
        "legislatorID": 138351,
        "longitude": -96.9134674,
        "phone": "972-492-2080",
        "pinColorIndex": 1,
        "spanLat": 0.002697960583,
        "spanLon": 0.002697960583,
        "stateCode": "TX",
        "updated": "2015-01-20 02:15:43",
        "zipCode": "75007"
    },
    {
        "address": "1600 E Pioneer Pkwy, #515",
        "chamber": 1,
        "city": "Arlington",
        "county": "Tarrant",
        "district": 101,
        "districtOfficeID": 237,
        "fax": null,
        "formattedAddress": "1600 East Pioneer Parkway #515, Arlington, TX 76010, USA",
        "latitude": 32.7080435,
        "legislatorID": 102270,
        "longitude": -97.086253,
        "phone": "817-459-2800",
        "pinColorIndex": 1,
        "spanLat": 0.002697960583,
        "spanLon": 0.002697960583,
        "stateCode": "TX",
        "updated": "2015-01-20 02:15:43",
        "zipCode": "76010"
    },
    {
        "address": "110 W Main St",
        "chamber": 1,
        "city": "Gainesville",
        "county": "Cooke",
        "district": 68,
        "districtOfficeID": 238,
        "fax": null,
        "formattedAddress": "110 West Main Street, Gainesville, TX 76240, USA",
        "latitude": 33.6235479,
        "legislatorID": 138360,
        "longitude": -97.1458213,
        "phone": "",
        "pinColorIndex": 1,
        "spanLat": 0.002697960583,
        "spanLon": 0.002697960583,
        "stateCode": "TX",
        "updated": "2015-01-20 02:15:43",
        "zipCode": "76240"
    },
    {
        "address": "5840 Interstate 20 W, #110",
        "chamber": 1,
        "city": "Arlington",
        "county": "Tarrant",
        "district": 96,
        "districtOfficeID": 239,
        "fax": null,
        "formattedAddress": "5840 Interstate 20 West #110, Arlington, TX 76017, USA",
        "latitude": 32.6721693,
        "legislatorID": 49612,
        "longitude": -97.1969595,
        "phone": "817-483-1885",
        "pinColorIndex": 1,
        "spanLat": 0.002697960583,
        "spanLon": 0.002697960583,
        "stateCode": "TX",
        "updated": "2015-01-20 02:15:43",
        "zipCode": "76017"
    },
    {
        "address": "6851 NE Loop 820",
        "chamber": 1,
        "city": "North Richland Hills",
        "county": "Tarrant",
        "district": 91,
        "districtOfficeID": 240,
        "fax": null,
        "formattedAddress": "6851 Northeast Loop 820, North Richland Hills, TX 76180, USA",
        "latitude": 32.8410095,
        "legislatorID": 138369,
        "longitude": -97.2333658,
        "phone": "817-281-0079",
        "pinColorIndex": 1,
        "spanLat": 0.002697960583,
        "spanLon": 0.002697960583,
        "stateCode": "TX",
        "updated": "2015-01-20 02:15:43",
        "zipCode": "76180"
    },
    {
        "address": "P.O. Box 770",
        "chamber": 1,
        "city": "Keller",
        "county": "Tarrant",
        "district": 98,
        "districtOfficeID": 241,
        "fax": null,
        "formattedAddress": "P.O. Box 770 Keller, TX 76244",
        "latitude": 32.9458766,
        "legislatorID": 117464,
        "longitude": -97.276076,
        "phone": "817-431-5339",
        "pinColorIndex": 1,
        "spanLat": 0.081505,
        "spanLon": 0.0790941,
        "stateCode": "TX",
        "updated": "2015-01-20 02:15:43",
        "zipCode": "76244"
    },
    {
        "address": "6624 N Riverside Dr, #330",
        "chamber": 1,
        "city": "Fort Worth",
        "county": "Tarrant",
        "district": 93,
        "districtOfficeID": 242,
        "fax": null,
        "formattedAddress": "6624 North Riverside Drive #330, Fort Worth, TX 76137, USA",
        "latitude": 32.8621236,
        "legislatorID": 117467,
        "longitude": -97.3041004,
        "phone": "817-847-4900",
        "pinColorIndex": 1,
        "spanLat": 0.002697960583,
        "spanLon": 0.002697960583,
        "stateCode": "TX",
        "updated": "2015-01-20 02:15:43",
        "zipCode": "76137"
    },
    {
        "address": "101 S Jennings Ave, #103a",
        "chamber": 1,
        "city": "Fort Worth",
        "county": "Tarrant",
        "district": 95,
        "districtOfficeID": 243,
        "fax": null,
        "formattedAddress": "101 South Jennings Avenue #103a, Fort Worth, TX 76104, USA",
        "latitude": 32.7435722,
        "legislatorID": 137771,
        "longitude": -97.3296976,
        "phone": "817-332-1180",
        "pinColorIndex": 1,
        "spanLat": 0.002697960583,
        "spanLon": 0.002697960583,
        "stateCode": "TX",
        "updated": "2015-01-20 02:15:43",
        "zipCode": "76104"
    },
    {
        "address": "606 N Carancahua St, #103a",
        "chamber": 1,
        "city": "Corpus Christi",
        "county": "Nueces",
        "district": 34,
        "districtOfficeID": 244,
        "fax": null,
        "formattedAddress": "606 North Carancahua Street #103a, Corpus Christi, TX 78401, USA",
        "latitude": 27.795777,
        "legislatorID": 50002,
        "longitude": -97.3972639,
        "phone": "361-884-2277",
        "pinColorIndex": 1,
        "spanLat": 0.002697960583,
        "spanLon": 0.002697960583,
        "stateCode": "TX",
        "updated": "2015-01-20 02:15:43",
        "zipCode": "78401"
    },
    {
        "address": "4255 Bryant Irvin Rd, #101",
        "chamber": 1,
        "city": "Fort Worth",
        "county": "Tarrant",
        "district": 97,
        "districtOfficeID": 245,
        "fax": null,
        "formattedAddress": "4255 Bryant Irvin Road #101, Fort Worth, TX 76109, USA",
        "latitude": 32.6901807,
        "legislatorID": 138373,
        "longitude": -97.4112313,
        "phone": "817-731-3712",
        "pinColorIndex": 1,
        "spanLat": 0.002697960583,
        "spanLon": 0.002697960583,
        "stateCode": "TX",
        "updated": "2015-01-20 02:15:43",
        "zipCode": "76109"
    },
    {
        "address": "1633 Williams Dr, #201",
        "chamber": 1,
        "city": "Georgetown",
        "county": "Williamson",
        "district": 20,
        "districtOfficeID": 246,
        "fax": null,
        "formattedAddress": "1633 Williams Drive #201, Georgetown, TX 78628, USA",
        "latitude": 30.6585824,
        "legislatorID": 124733,
        "longitude": -97.6868552,
        "phone": "",
        "pinColorIndex": 1,
        "spanLat": 0.002697960583,
        "spanLon": 0.002697960583,
        "stateCode": "TX",
        "updated": "2015-01-20 02:15:43",
        "zipCode": "78628"
    },
    {
        "address": "P.O. Box 704 ",
        "chamber": 1,
        "city": "Gatesville",
        "county": "",
        "district": 59,
        "districtOfficeID": 247,
        "fax": null,
        "formattedAddress": "P.O. Box 704 Gatesville, TX 76528",
        "latitude": 31.4346919,
        "legislatorID": 116950,
        "longitude": -97.8286368,
        "phone": "254-918-5729",
        "pinColorIndex": 1,
        "spanLat": 0.5872091,
        "spanLon": 0.683781,
        "stateCode": "TX",
        "updated": "2015-01-20 02:15:43",
        "zipCode": "76528"
    },
    {
        "address": "635 E King Ave",
        "chamber": 1,
        "city": "Kingsville",
        "county": "Kleberg",
        "district": 43,
        "districtOfficeID": 248,
        "fax": null,
        "formattedAddress": "635 East King Avenue, Kingsville, TX 78363, USA",
        "latitude": 27.515374,
        "legislatorID": 116981,
        "longitude": -97.860838,
        "phone": "361-595-1550",
        "pinColorIndex": 1,
        "spanLat": 0.002697960583,
        "spanLon": 0.002697960583,
        "stateCode": "TX",
        "updated": "2015-01-20 02:15:43",
        "zipCode": "78363"
    },
    {
        "address": "101 N 10th Ave",
        "chamber": 1,
        "city": "Edinburg",
        "county": "Hidalgo",
        "district": 40,
        "districtOfficeID": 249,
        "fax": null,
        "formattedAddress": "101 North 10th Avenue, Edinburg, TX 78541, USA",
        "latitude": 26.3018664,
        "legislatorID": 137743,
        "longitude": -98.1638663,
        "phone": "",
        "pinColorIndex": 1,
        "spanLat": 0.002697960583,
        "spanLon": 0.002697960583,
        "stateCode": "TX",
        "updated": "2015-01-20 02:15:43",
        "zipCode": "78541"
    },
    {
        "address": "10213 N 10th St",
        "chamber": 1,
        "city": "McAllen",
        "county": "Hidalgo",
        "district": 41,
        "districtOfficeID": 250,
        "fax": null,
        "formattedAddress": "10213 North 10th Street, McAllen, TX 78504, USA",
        "latitude": 26.29553,
        "legislatorID": 137747,
        "longitude": -98.2149699,
        "phone": "956-292-0407",
        "pinColorIndex": 1,
        "spanLat": 0.002697960583,
        "spanLon": 0.002697960583,
        "stateCode": "TX",
        "updated": "2015-01-20 02:15:43",
        "zipCode": "78504"
    },
    {
        "address": "1320 Main St",
        "chamber": 1,
        "city": "Mission",
        "county": "Hidalgo",
        "district": 35,
        "districtOfficeID": 251,
        "fax": null,
        "formattedAddress": "1320 Main Street, Mission, TX 78572, USA",
        "latitude": 26.2415789,
        "legislatorID": 137738,
        "longitude": -98.4052579,
        "phone": "956-580-6944",
        "pinColorIndex": 1,
        "spanLat": 0.002697960583,
        "spanLon": 0.002697960583,
        "stateCode": "TX",
        "updated": "2015-01-20 02:15:43",
        "zipCode": "78572"
    },
    {
        "address": "9601 McAllister Fwy, #150",
        "chamber": 2,
        "city": "San Antonio",
        "county": "Bexar",
        "district": 25,
        "districtOfficeID": 252,
        "fax": null,
        "formattedAddress": "9601 McAllister Freeway #150, San Antonio, TX 78216, USA",
        "latitude": 29.5278133,
        "legislatorID": 116916,
        "longitude": -98.4848692,
        "phone": "210-979-0013",
        "pinColorIndex": 1,
        "spanLat": 0.002697960583,
        "spanLon": 0.002697960583,
        "stateCode": "TX",
        "updated": "2015-01-20 02:15:43",
        "zipCode": "78216"
    },
    {
        "address": "5503 Grissom Rd, #105",
        "chamber": 1,
        "city": "San Antonio",
        "county": "Bexar",
        "district": 125,
        "districtOfficeID": 253,
        "fax": null,
        "formattedAddress": "5503 Grissom Road #105, San Antonio, TX 78238, USA",
        "latitude": 29.4850455,
        "legislatorID": 78692,
        "longitude": -98.628201,
        "phone": "",
        "pinColorIndex": 1,
        "spanLat": 0.002697960583,
        "spanLon": 0.002697960583,
        "stateCode": "TX",
        "updated": "2015-01-20 02:15:43",
        "zipCode": "78238"
    },
    {
        "address": "1815 Williams St",
        "chamber": 1,
        "city": "Eagle Pass",
        "county": "Maverick",
        "district": 74,
        "districtOfficeID": 254,
        "fax": null,
        "formattedAddress": "1815 Williams Street, Eagle Pass, TX 78852, USA",
        "latitude": 28.70447,
        "legislatorID": 138019,
        "longitude": -100.489214,
        "phone": "830-773-0860",
        "pinColorIndex": 1,
        "spanLat": 0.002697960583,
        "spanLon": 0.002697960583,
        "stateCode": "TX",
        "updated": "2015-01-20 02:15:43",
        "zipCode": "78852"
    },
    {
        "address": "",
        "chamber": 1,
        "city": "Socorro",
        "county": "El Paso",
        "district": 75,
        "districtOfficeID": 255,
        "fax": null,
        "formattedAddress": "Santos Sanchez Street, Socorro, TX 79927, USA",
        "latitude": 31.6205522,
        "legislatorID": 137767,
        "longitude": -106.290371,
        "phone": "915-790-2299",
        "pinColorIndex": 1,
        "spanLat": 0.0059555,
        "spanLon": 0.0050979,
        "stateCode": "TX",
        "updated": "2015-01-20 02:15:43",
        "zipCode": "79927"
    },
    {
        "address": "5675 Woodrow Bean Transmountain Dr, #12",
        "chamber": 1,
        "city": "El Paso",
        "county": "El Paso",
        "district": 78,
        "districtOfficeID": 256,
        "fax": null,
        "formattedAddress": "5675 Woodrow Bean Transmountain Drive #12, El Paso, TX 79924, USA",
        "latitude": 31.8998347,
        "legislatorID": 102266,
        "longitude": -106.409436,
        "phone": "915-751-2700",
        "pinColorIndex": 1,
        "spanLat": 0.002697960583,
        "spanLon": 0.002697960583,
        "stateCode": "TX",
        "updated": "2015-01-20 02:15:43",
        "zipCode": "79924"
    },
    {
        "address": "1301 Westwood Rd.",
        "chamber": 1,
        "city": "Lockhart",
        "county": "Caldwell",
        "district": 17,
        "districtOfficeID": 257,
        "fax": "",
        "formattedAddress": "1301 Westwood Rd., Lockhart, TX 78644",
        "latitude": 29.8060649,
        "legislatorID": 70492,
        "longitude": -97.6902473,
        "phone": "512-585-1359",
        "pinColorIndex": 1,
        "spanLat": 0.002697960583,
        "spanLon": 0.002697960583,
        "stateCode": "TX",
        "updated": "2015-03-25 16:02:37",
        "zipCode": "78644"
    }
]
